codigo,nombre,tipo,titularidad,municipio,provincia,comunidad,direccion,codigo_postal,telefono,email,web,latitud,longitud,curso_academico,enseñanzas,especialidad,familia_fp,situacion,fuente
28000364,COMPLUTENSE,IES,Público,Alcalá de Henares,Madrid,Comunidad de Madrid,CALLE Valladolid 1,28804.0,918880169,ies.complutense.alcala@educa.madrid.org,http://www.educa.madrid.org/ies.complutense.alcala,40.894699,-3.350091,2024-25,ESO|Bachillerato|CFGM|CFGS,ESO | Bachillerato | Ciclos Formativos,Múltiples familias,ALTA,centros_educativos
28000467,ALONSO DE AVELLANEDA,IES,Público,Alcalá de Henares,Madrid,Comunidad de Madrid,CALLE Vitoria 3,28804.0,918881174,ies.alonsodeavellan.alcala@educa.madrid.org,http://www.educa.madrid.org/ies.alonsodeavellan.alcala,40.900919,-3.34376,2024-25,ESO|Bachillerato|CFGM|CFGS,ESO | Bachillerato | Ciclos Formativos,Múltiples familias,ALTA,centros_educativos
28000522,ANTONIO MACHADO,IES,Público,Alcalá de Henares,Madrid,Comunidad de Madrid,CALLE Alalpardo s/n,28806.0,918892450,ies.machado.alcala@educa.madrid.org,http://www.educa.madrid.org/ies.machado.alcala,40.901797,-3.372033,2024-25,ESO|Bachillerato|CFGM|CFGS,ESO | Bachillerato | Ciclos Formativos,Múltiples familias,ALTA,centros_educativos
28000753,FRANCISCO GINER DE LOS RIOS,IES,Público,Alcobendas,Madrid,Comunidad de Madrid,AVDA de la Transición Española 11,28108.0,916525466,ies.ginerdelosrios.alcobendas@educa.madrid.org,http://www.educa.madrid.org/ies.ginerdelosrios.alcobendas,40.943837,-3.624558,2024-25,ESO|Bachillerato|CFGM|CFGS,ESO | Bachillerato | Ciclos Formativos,Múltiples familias,ALTA,centros_educativos
28001629,DOMENICO SCARLATTI,IES,Público,Aranjuez,Madrid,Comunidad de Madrid,CALLE de Valeras 22,28300.0,918910057,ies.domenicoscarlat.aranjuez@educa.madrid.org,http://www.educa.madrid.org/ies.domenicoscarlat.aranjuez,40.438843,-3.612986,2024-25,ESO|Bachillerato|CFGM|CFGS,ESO | Bachillerato | Ciclos Formativos,Múltiples familias,ALTA,centros_educativos
28001678,JORGE MANRIQUE,IES,Público,Tres Cantos,Madrid,Comunidad de Madrid,CALLE del Mar Adriático 2,28760.0,918040964,ies.jorgemanrique.trescantos@educa.madrid.org,http://www.educa.madrid.org/ies.jorgemanrique.trescantos,41.002131,-3.708699,2024-25,ESO|Bachillerato|CFGM|CFGS,ESO | Bachillerato | Ciclos Formativos,Múltiples familias,ALTA,centros_educativos
28001769,EL CARRASCAL,IES,Público,Arganda del Rey,Madrid,Comunidad de Madrid,AVDA del Instituto s/n,28500.0,918760082,ies.elcarrascal.arganda@educa.madrid.org,http://www.educa.madrid.org/ies.elcarrascal.arganda,40.700078,-3.444132,2024-25,ESO|Bachillerato|CFGM|CFGS,ESO | Bachillerato | Ciclos Formativos,Múltiples familias,ALTA,centros_educativos
28002181,JUAN CARLOS I,IES,Público,Ciempozuelos,Madrid,Comunidad de Madrid,CALLE de San Francisco s/n,28350.0,918930158,ies.juancarlosprimero.ciempozuelos@educa.madrid.org,http://www.educa.madrid.org/ies.juancarlosprimero.ciempozuelos,40.563135,-3.624018,2024-25,ESO|Bachillerato|CFGM|CFGS,ESO | Bachillerato | Ciclos Formativos,Múltiples familias,ALTA,centros_educativos
28002208,SAN JUAN DE DIOS,CPR FPE,Concertado,Ciempozuelos,Madrid,Comunidad de Madrid,AVDA de San Juan de Dios 1,28350.0,918015650,cc.sanjuandedios.ciempozuelos@educa.madrid.org,http://www.ciclosformativossjd.es,40.568766,-3.614253,2024-25,CFGM|CFGS,Técnico Superior en Administración y Finanzas | Técnico en Gestión Administrativa,Administración y Gestión,ALTA,centros_educativos
28002312,MARQUES DE SANTILLANA,IES,Público,Colmenar Viejo,Madrid,Comunidad de Madrid,CALLE de la Isla del Rey 5,28770.0,918452114,ies.marquesdesantil.colmenarviejo@educa.madrid.org,http://www.educa.madrid.org/ies.marquesdesantil.colmenarviejo,41.079906,-3.775653,2024-25,ESO|Bachillerato|CFGM|CFGS,ESO | Bachillerato | Ciclos Formativos,Múltiples familias,ALTA,centros_educativos
28002415,JAIME FERRAN,IES,Público,Collado Villalba,Madrid,Comunidad de Madrid,CALLE Matalpino 22,28400.0,918501571,ies.jaimeferran.colladovillalba@educa.madrid.org,http://www.educa.madrid.org/ies.jaimeferran.colladovillalba,41.048589,-4.009063,2024-25,ESO|Bachillerato|CFGM|CFGS,ESO | Bachillerato | Ciclos Formativos,Múltiples familias,ALTA,centros_educativos
28002580,MIGUEL CATALÁN,IES,Público,Coslada,Madrid,Comunidad de Madrid,AVDA de José Gárate s/n,28823.0,916727142,ies.miguelcatalan.coslada@educa.madrid.org,http://www.educa.madrid.org/ies.miguelcatalan.coslada,40.842227,-3.54459,2024-25,ESO|Bachillerato|CFGM|CFGS,ESO | Bachillerato | Ciclos Formativos,Múltiples familias,ALTA,centros_educativos
28003201,MATEMATICO PUIG ADAM,IES,Público,Getafe,Madrid,Comunidad de Madrid,CALLE Toledo 45,28901.0,916951024,ies.puigadam.getafe@educa.madrid.org,http://www.educa.madrid.org/ies.puigadam.getafe,40.707271,-3.740131,2024-25,ESO|Bachillerato|CFGM|CFGS,ESO | Bachillerato | Ciclos Formativos,Múltiples familias,ALTA,centros_educativos
28003304,ALARNES,IES,Público,Getafe,Madrid,Comunidad de Madrid,CALLE Toledo 44,28901.0,916814203,ies.alarnes.getafe@educa.madrid.org,http://www.educa.madrid.org/ies.alarnes.getafe,40.709768,-3.739295,2024-25,ESO|Bachillerato|CFGM|CFGS,ESO | Bachillerato | Ciclos Formativos,Múltiples familias,ALTA,centros_educativos
28003882,JOSE DE CHURRIGUERA,IES,Público,Leganés,Madrid,Comunidad de Madrid,CALLE Constitución de Cádiz 1,28914.0,916946011,ies.churriguera.leganes@educa.madrid.org,http://www.educa.madrid.org/ies.churriguera.leganes,40.732994,-3.766813,2024-25,ESO|Bachillerato|CFGM|CFGS,ESO | Bachillerato | Ciclos Formativos,Múltiples familias,ALTA,centros_educativos
28003894,LUIS VIVES,IES,Público,Leganés,Madrid,Comunidad de Madrid,PASEO de la Ermita 15,28918.0,916807712,ies.luisvives.leganes@educa.madrid.org,http://www.educa.madrid.org/ies.luisvives.leganes,40.748871,-3.769637,2024-25,ESO|Bachillerato|CFGM|CFGS,ESO | Bachillerato | Ciclos Formativos,Múltiples familias,ALTA,centros_educativos
28003900,MARIA ZAMBRANO,IES,Público,Leganés,Madrid,Comunidad de Madrid,CALLE Alpujarras 52,28915.0,916880222,ies.mariazambrano.leganes@educa.madrid.org,http://www.educa.madrid.org/ies.mariazambrano.leganes,40.740402,-3.752164,2024-25,ESO|Bachillerato|CFGM|CFGS,ESO | Bachillerato | Ciclos Formativos,Múltiples familias,ALTA,centros_educativos
28004059,CERVANTES,IES,Público,Madrid,Madrid,Comunidad de Madrid,CALLE de Embajadores 70,28012.0,915285061,ies.cervantes.madrid@educa.madrid.org,http://www.educa.madrid.org/ies.cervantes.madrid,40.81589,-3.70752,2024-25,ESO|Bachillerato|CFGM|CFGS,ESO | Bachillerato | Ciclos Formativos,Múltiples familias,ALTA,centros_educativos
28009884,TEIDE IV,CPR FPE,Concertado,Madrid,Madrid,Comunidad de Madrid,CALLE de Alcalá 339,28027.0,914087311,cc.teideiv.madrid@educa.madrid.org,http://www.educa.madrid.org/cc.teideiv.madrid,40.843422,-3.651965,2024-25,CFGM|CFGS,Técnico Superior en Administración y Finanzas | Técnico en Gestión Administrativa,Administración y Gestión,ALTA,centros_educativos
28013899,EL ESPINILLO,IES,Público,Madrid,Madrid,Comunidad de Madrid,CALLE de la Unanimidad 15,28041.0,917239150,ies.elespinillo.madrid@educa.madrid.org,http://www.educa.madrid.org/ies.elespinillo.madrid,40.771554,-3.692723,2024-25,ESO|Bachillerato|CFGM|CFGS,ESO | Bachillerato | Ciclos Formativos,Múltiples familias,ALTA,centros_educativos
28015756,VALDEBERNARDO,IES,Público,Madrid,Madrid,Comunidad de Madrid,BULEV de Indalecio Prieto 1,28032.0,913016099,ies.valdebernardo.madrid@educa.madrid.org,http://www.educa.madrid.org/ies.valdebernardo.madrid,40.815187,-3.622816,2024-25,ESO|Bachillerato|CFGM|CFGS,ESO | Bachillerato | Ciclos Formativos,Múltiples familias,ALTA,centros_educativos
28018228,VIRGEN DE LA LUZ,CPR FPE,Privado,Madrid,Madrid,Comunidad de Madrid,CALLE de Francisco Brizuela 1,28011.0,917254886,cc.virgendelaluz.madrid@educa.madrid.org,www.centrocoviluz.com,40.819484,-3.743227,2024-25,CFGM|CFGS,Técnico Superior en Administración y Finanzas | Técnico en Gestión Administrativa,Administración y Gestión,BAJA,centros_educativos
28018344,SANTA TERESA DE JESUS,IES,Público,Madrid,Madrid,Comunidad de Madrid,CALLE del Fomento 9,28013.0,915415996,ies.santateresa.madrid@educa.madrid.org,http://www.educa.madrid.org/ies.santateresa.madrid,40.830551,-3.71446,2024-25,ESO|Bachillerato|CFGM|CFGS,ESO | Bachillerato | Ciclos Formativos,Múltiples familias,ALTA,centros_educativos
28018356,SANTAMARCA,IES,Público,Madrid,Madrid,Comunidad de Madrid,CALLE de Puerto Rico 34,28016.0,913505122,ies.santamarca.madrid@educa.madrid.org,http://www.educa.madrid.org/ies.santamarca.madrid,40.866232,-3.678188,2024-25,ESO|Bachillerato|CFGM|CFGS,ESO | Bachillerato | Ciclos Formativos,Múltiples familias,ALTA,centros_educativos
28018368,SANTA ENGRACIA,IES,Público,Madrid,Madrid,Comunidad de Madrid,CALLE de Santa Engracia 13,28010.0,914477234,ies.santaengracia.madrid@educa.madrid.org,http://www.educa.madrid.org/ies.santaengracia.madrid,40.839822,-3.70099,2024-25,ESO|Bachillerato|CFGM|CFGS,ESO | Bachillerato | Ciclos Formativos,Múltiples familias,ALTA,centros_educativos
28018381,ORTEGA Y GASSET,IES,Público,Madrid,Madrid,Comunidad de Madrid,CALLE SANTA FE 4,28008.0,915476635,ies.ortegaygasset.madrid@educa.madrid.org,http://www.educa.madrid.org/ies.ortegaygasset.madrid,40.84167,-3.74026,2024-25,ESO|Bachillerato|CFGM|CFGS,ESO | Bachillerato | Ciclos Formativos,Múltiples familias,ALTA,centros_educativos
28018423,INSTITUTO POLITECNICO N.1 DEL EJERCITO,IES,Público,Madrid,Madrid,Comunidad de Madrid,AVDA de Carabanchel Alto 17,28044.0,,ies.numerounoejercito.madrid@educa.madrid.org,http://www.educa.madrid.org/ies.numerounoejercito.madrid,40.779659,-3.757407,2024-25,ESO|Bachillerato|CFGM|CFGS,ESO | Bachillerato | Ciclos Formativos,Múltiples familias,ALTA,centros_educativos
28018435,EMILIO CASTELAR,IES,Público,Madrid,Madrid,Comunidad de Madrid,CALLE de Río de Oro 4,28019.0,914713243,ies.emiliocastelar.madrid@educa.madrid.org,http://www.educa.madrid.org/ies.emiliocastelar.madrid,40.798744,-3.73446,2024-25,ESO|Bachillerato|CFGM|CFGS,ESO | Bachillerato | Ciclos Formativos,Múltiples familias,ALTA,centros_educativos
28018460,ARCIPRESTE DE HITA,IES,Público,Madrid,Madrid,Comunidad de Madrid,RONDA Sur 6,28053.0,917858510,ies.arciprestedehita.madrid@educa.madrid.org,http://www.educa.madrid.org/ies.arciprestedehita.madrid,40.786532,-3.675373,2024-25,ESO|Bachillerato|CFGM|CFGS,ESO | Bachillerato | Ciclos Formativos,Múltiples familias,ALTA,centros_educativos
28018472,SAN CRISTOBAL DE LOS ANGELES,IES,Público,Madrid,Madrid,Comunidad de Madrid,PLAZA de los Pinazo 7,28021.0,917972584,ies.sancristobal.madrid@educa.madrid.org,http://www.educa.madrid.org/ies.sancristobal.madrid,40.752628,-3.693866,2024-25,ESO|Bachillerato|CFGM|CFGS,ESO | Bachillerato | Ciclos Formativos,Múltiples familias,ALTA,centros_educativos
28018484,CARLOS MARIA RODRIGUEZ DE VALCARCEL,IES,Público,Madrid,Madrid,Comunidad de Madrid,PLAZA del Encuentro 4,28030.0,914393570,ies.rodriguezdevalcarcel.madrid@educa.madrid.org,http://www.educa.madrid.org/ies.rodriguezdevalcarcel.madrid,40.815085,-3.65598,2024-25,ESO|Bachillerato|CFGM|CFGS,ESO | Bachillerato | Ciclos Formativos,Múltiples familias,ALTA,centros_educativos
28018514,AFUERA II,CPR FPE,Privado,Madrid,Madrid,Comunidad de Madrid,CRA de San Francisco 11,28005.0,913653863,cc.afuera2.madrid@educa.madrid.org,http://www.afuera2.com,40.820767,-3.717248,2024-25,CFGM|CFGS,Técnico Superior en Administración y Finanzas | Técnico en Gestión Administrativa,Administración y Gestión,BAJA,centros_educativos
28018563,GONZALEZ CAÑADAS,CPR FPE,Concertado,Madrid,Madrid,Comunidad de Madrid,CALLE de Fuencarral 95,28004.0,914489500,cc.gonzalezcanadas.madrid@educa.madrid.org,,40.837074,-3.706025,2024-25,CFGM|CFGS,Técnico Superior en Administración y Finanzas | Técnico en Gestión Administrativa,Administración y Gestión,ALTA,centros_educativos
28018903,JOAQUÍN TURINA,IES,Público,Madrid,Madrid,Comunidad de Madrid,CALLE de Guzmán el Bueno 92,28003.0,915539625,ies.joaquinturina.madrid@educa.madrid.org,http://www.educa.madrid.org/ies.joaquinturina.madrid,40.850491,-3.716928,2024-25,ESO|Bachillerato|CFGM|CFGS,ESO | Bachillerato | Ciclos Formativos,Múltiples familias,ALTA,centros_educativos
28019117,LA QUINTANA,CPR FPE,Concertado,Madrid,Madrid,Comunidad de Madrid,CALLE de La Revoltosa 19,28031.0,913326349,quintana-dir@terra.es,,40.784511,-3.62554,2024-25,CFGM|CFGS,Técnico Superior en Administración y Finanzas | Técnico en Gestión Administrativa,Administración y Gestión,BAJA,centros_educativos
28019312,EL LAGO,IES,Público,Madrid,Madrid,Comunidad de Madrid,PASEO de la Puerta del Ángel s/n,28011.0,914796851,ies.ellago.madrid@educa.madrid.org,http://www.educa.madrid.org/ies.ellago.madrid,40.825712,-3.737497,2024-25,ESO|Bachillerato|CFGM|CFGS,ESO | Bachillerato | Ciclos Formativos,Múltiples familias,ALTA,centros_educativos
28019351,SAN FERNANDO,IES,Público,Madrid,Madrid,Comunidad de Madrid,CTRA de Colmenar Viejo k13.5,28049.0,917342700,ies.sanfernando.madrid@educa.madrid.org,www.iessanfernando.com,40.938191,-3.693428,2024-25,ESO|Bachillerato|CFGM|CFGS,ESO | Bachillerato | Ciclos Formativos,Múltiples familias,ALTA,centros_educativos
28019464,TIRSO DE MOLINA,IES,Público,Madrid,Madrid,Comunidad de Madrid,AVDA de la Albufera 144,28038.0,913033173,ies.tirsodemolina.madrid@educa.madrid.org,http://www.educa.madrid.org/ies.tirsodemolina.madrid,40.801097,-3.65704,2024-25,ESO|Bachillerato|CFGM|CFGS,ESO | Bachillerato | Ciclos Formativos,Múltiples familias,ALTA,centros_educativos
28019889,LOPE DE VEGA,IES,Público,Madrid,Madrid,Comunidad de Madrid,CALLE de San Bernardo 70,28015.0,915321362,ies.lopedevega.madrid@educa.madrid.org,http://www.educa.madrid.org/ies.lopedevega.madrid,40.836991,-3.710721,2024-25,ESO|Bachillerato|CFGM|CFGS,ESO | Bachillerato | Ciclos Formativos,Múltiples familias,ALTA,centros_educativos
28019971,BARAJAS,IES,Público,Madrid,Madrid,Comunidad de Madrid,AVDA de América 119,28042.0,917426211,ies.barajas.madrid@educa.madrid.org,http://www.educa.madrid.org/ies.barajas.madrid,40.861054,-3.602861,2024-25,ESO|Bachillerato|CFGM|CFGS,ESO | Bachillerato | Ciclos Formativos,Múltiples familias,ALTA,centros_educativos
28020119,GREGORIO MARAÑON,IES,Público,Madrid,Madrid,Comunidad de Madrid,AVDA de El Ferrol 43,28029.0,917310421,ies.gregoriomaranon.madrid@educa.madrid.org,http://www.educa.madrid.org/ies.gregoriomaranon.madrid,40.884488,-3.714482,2024-25,ESO|Bachillerato|CFGM|CFGS,ESO | Bachillerato | Ciclos Formativos,Múltiples familias,ALTA,centros_educativos
28020201,BARRIO SIMANCAS,IES,Público,Madrid,Madrid,Comunidad de Madrid,CALLE de Zaratán 6,28037.0,913041570,ies.barriosimancas.madrid@educa.madrid.org,http://www.educa.madrid.org/ies.barriosimancas.madrid,40.839026,-3.629231,2024-25,ESO|Bachillerato|CFGM|CFGS,ESO | Bachillerato | Ciclos Formativos,Múltiples familias,ALTA,centros_educativos
28020341,VIRGEN DE LA PALOMA,IES,Público,Madrid,Madrid,Comunidad de Madrid,CALLE de Francos Rodríguez 106,28039.0,913980300,ies.lapaloma.madrid@educa.madrid.org,http://www.educa.madrid.org/ies.lapaloma.madrid,40.868992,-3.720177,2024-25,ESO|Bachillerato|CFGM|CFGS,ESO | Bachillerato | Ciclos Formativos,Múltiples familias,ALTA,centros_educativos
28020399,ESCUELA PROFESIONAL JAVERIANA,CPR FPE,Concertado,Madrid,Madrid,Comunidad de Madrid,CALLE de Alberto Aguilera 8,28015.0,914457350,cc.epjaveriana.madrid@educa.madrid.org,http://www.educa.madrid.org/cc.epjaveriana.madrid,40.839885,-3.711227,2024-25,CFGM|CFGS,Técnico Superior en Administración y Finanzas | Técnico en Gestión Administrativa,Administración y Gestión,ALTA,centros_educativos
28020545,CONDE DE ORGAZ,IES,Público,Madrid,Madrid,Comunidad de Madrid,CALLE de Nápoles 56,28043.0,913884579,ies.condedeorgaz.madrid@educa.madrid.org,http://www.educa.madrid.org/ies.condedeorgaz.madrid,40.870047,-3.650446,2024-25,ESO|Bachillerato|CFGM|CFGS,ESO | Bachillerato | Ciclos Formativos,Múltiples familias,ALTA,centros_educativos
28020557,CARLOS III,IES,Público,Madrid,Madrid,Comunidad de Madrid,CALLE de Arcos de Jalón 116,28037.0,913064069,ies.carlostercero.madrid@educa.madrid.org,http://www.educa.madrid.org/ies.carlostercero.madrid,40.834915,-3.618292,2024-25,ESO|Bachillerato|CFGM|CFGS,ESO | Bachillerato | Ciclos Formativos,Múltiples familias,ALTA,centros_educativos
28020570,SAN BLAS,IES,Público,Madrid,Madrid,Comunidad de Madrid,CALLE de Arcos de Jalón 120,28037.0,913061148,ies.sanblas.madrid@educa.madrid.org,http://www.educa.madrid.org/ies.sanblas.madrid,40.836375,-3.617084,2024-25,ESO|Bachillerato|CFGM|CFGS,ESO | Bachillerato | Ciclos Formativos,Múltiples familias,ALTA,centros_educativos
28020582,GÓMEZ MORENO,IES,Público,Madrid,Madrid,Comunidad de Madrid,AVDA de Hellín 5,28037.0,913209142,ies.gomezmoreno.madrid@educa.madrid.org,http://www.educa.madrid.org/ies.gomezmoreno.madrid,40.842156,-3.619558,2024-25,ESO|Bachillerato|CFGM|CFGS,ESO | Bachillerato | Ciclos Formativos,Múltiples familias,ALTA,centros_educativos
28020624,REY PASTOR,IES,Público,Madrid,Madrid,Comunidad de Madrid,CALLE del Corregidor José de Pasamonte 17,28030.0,914392661,ies.reypastor.madrid@educa.madrid.org,http://www.educa.madrid.org/ies.reypastor.madrid,40.820658,-3.652039,2024-25,ESO|Bachillerato|CFGM|CFGS,ESO | Bachillerato | Ciclos Formativos,Múltiples familias,ALTA,centros_educativos
28020648,VALLECAS I,IES,Público,Madrid,Madrid,Comunidad de Madrid,AVDA de la Albufera 78,28038.0,914773809,ies.vallecasuno.madrid@educa.madrid.org,https://site.educa.madrid.org/ies.vallecasuno.madrid/,40.804911,-3.667214,2024-25,ESO|Bachillerato|CFGM|CFGS,ESO | Bachillerato | Ciclos Formativos,Múltiples familias,ALTA,centros_educativos
28020697,GARCIA MORENTE,IES,Público,Madrid,Madrid,Comunidad de Madrid,RONDA Sur 229,28053.0,917850714,,,40.783316,-3.669522,2024-25,ESO|Bachillerato|CFGM|CFGS,ESO | Bachillerato | Ciclos Formativos,Múltiples familias,BAJA,centros_educativos
28020703,ENRIQUE TIERNO GALVAN,IES,Público,Madrid,Madrid,Comunidad de Madrid,"AVDA de Andalucía 6,200",28041.0,913171972,ies.tiernogalvan.madrid@educa.madrid.org,http://www.educa.madrid.org/ies.tiernogalvan.madrid,40.78007,-3.699472,2024-25,ESO|Bachillerato|CFGM|CFGS,ESO | Bachillerato | Ciclos Formativos,Múltiples familias,ALTA,centros_educativos
28020715,PIO BAROJA,IES,Público,Madrid,Madrid,Comunidad de Madrid,CALLE de Tolosa 2,28041.0,913412613,ies.piobaroja.madrid@educa.madrid.org,http://www.educa.madrid.org/ies.piobaroja.madrid,40.782839,-3.723251,2024-25,ESO|Bachillerato|CFGM|CFGS,ESO | Bachillerato | Ciclos Formativos,Múltiples familias,ALTA,centros_educativos
28020727,PARQUE ALUCHE,IES,Público,Madrid,Madrid,Comunidad de Madrid,CALLE de Maqueda 86,28024.0,917182610,ies.parquealuche.madrid@educa.madrid.org,http://www.educa.madrid.org/ies.parquealuche.madrid,40.80012,-3.768427,2024-25,ESO|Bachillerato|CFGM|CFGS,ESO | Bachillerato | Ciclos Formativos,Múltiples familias,ALTA,centros_educativos
28020739,EIJO Y GARAY,IES,Público,Madrid,Madrid,Comunidad de Madrid,CALLE de Severino Aznar Embid 6-8,28011.0,914632441,ies.eijogaray.madrid@educa.madrid.org,http://www.educa.madrid.org/ies.eijogaray.madrid,40.81812,-3.743378,2024-25,ESO|Bachillerato|CFGM|CFGS,ESO | Bachillerato | Ciclos Formativos,Múltiples familias,ALTA,centros_educativos
28020806,NUESTRA SEÑORA DE LA ALMUDENA,IES,Público,Madrid,Madrid,Comunidad de Madrid,PLAZA de La Remonta 17,28039.0,915712857,ies.almudena.madrid@educa.madrid.org,http://www.educa.madrid.org/ies.almudena.madrid,40.874091,-3.702716,2024-25,ESO|Bachillerato|CFGM|CFGS,ESO | Bachillerato | Ciclos Formativos,Múltiples familias,ALTA,centros_educativos
28020831,TETUAN DE LAS VICTORIAS,IES,Público,Madrid,Madrid,Comunidad de Madrid,CALLE Vía Límite 14,28029.0,913146706,ies.tetuan.madrid@educa.madrid.org,http://www.educa.madrid.org/ies.tetuan.madrid,40.883225,-3.701198,2024-25,ESO|Bachillerato|CFGM|CFGS,ESO | Bachillerato | Ciclos Formativos,Múltiples familias,ALTA,centros_educativos
28020855,CARDENAL HERRERA ORIA,IES,Público,Madrid,Madrid,Comunidad de Madrid,CALLE de Fermín Caballero 68,28034.0,913781940,ies.cardenalherrera.madrid@educa.madrid.org,http://www.educa.madrid.org/ies.cardenalherrera.madrid,40.89261,-3.7161,2024-25,ESO|Bachillerato|CFGM|CFGS,ESO | Bachillerato | Ciclos Formativos,Múltiples familias,ALTA,centros_educativos
28020892,BEATRIZ GALINDO,IES,Público,Madrid,Madrid,Comunidad de Madrid,CALLE de Goya 10,28001.0,914314814,ies.beatrizgalindo.madrid@educa.madrid.org,http://www.educa.madrid.org/ies.beatrizgalindo.madrid,40.835156,-3.690444,2024-25,ESO|Bachillerato|CFGM|CFGS,ESO | Bachillerato | Ciclos Formativos,Múltiples familias,ALTA,centros_educativos
28020909,ISABEL LA CATOLICA,IES,Público,Madrid,Madrid,Comunidad de Madrid,CALLE de Alfonso XII 3,28014.0,915277878,ies.isabellacatolica.madrid@educa.madrid.org,http://www.educa.madrid.org/ies.isabellacatolica.madrid,40.819483,-3.692498,2024-25,ESO|Bachillerato|CFGM|CFGS,ESO | Bachillerato | Ciclos Formativos,Múltiples familias,ALTA,centros_educativos
28020910,JUAN DE LA CIERVA,IES,Público,Madrid,Madrid,Comunidad de Madrid,CALLE de La Caoba 1,28005.0,915064610,ies.juandelacierva.madrid@educa.madrid.org,http://iesjuandelacierva.es,40.812143,-3.710741,2024-25,ESO|Bachillerato|CFGM|CFGS,ESO | Bachillerato | Ciclos Formativos,Múltiples familias,ALTA,centros_educativos
28020934,CARDENAL CISNEROS,IES,Público,Madrid,Madrid,Comunidad de Madrid,CALLE de los Reyes 4,28015.0,915224869,ies.cardenalcisnero.madrid@educa.madrid.org,http://www.educa.madrid.org/ies.cardenalcisnero.madrid,40.834434,-3.712687,2024-25,ESO|Bachillerato|CFGM|CFGS,ESO | Bachillerato | Ciclos Formativos,Múltiples familias,ALTA,centros_educativos
28020946,SAN ISIDRO,IES,Público,Madrid,Madrid,Comunidad de Madrid,CALLE de Toledo 39,28005.0,913651271,ies.sanisidro.madrid@educa.madrid.org,http://www.educa.madrid.org/ies.sanisidro.madrid,40.822625,-3.71173,2024-25,ESO|Bachillerato|CFGM|CFGS,ESO | Bachillerato | Ciclos Formativos,Múltiples familias,ALTA,centros_educativos
28020958,EMPERATRIZ MARIA DE AUSTRIA,IES,Público,Madrid,Madrid,Comunidad de Madrid,CALLE de Antonio de Leyva 84,28019.0,914692425,ies.emperatrizmaria.madrid@educa.madrid.org,http://www.educa.madrid.org/ies.emperatrizmaria.madrid,40.797093,-3.721474,2024-25,ESO|Bachillerato|CFGM|CFGS,ESO | Bachillerato | Ciclos Formativos,Múltiples familias,ALTA,centros_educativos
28020961,CALDERON DE LA BARCA,IES,Público,Madrid,Madrid,Comunidad de Madrid,CALLE de Antonio de Leyva 84,28019.0,915608300,ies.calderondelabar.madrid@educa.madrid.org,http://www.educa.madrid.org/ies.calderondelabar.madrid,40.797093,-3.721474,2024-25,ESO|Bachillerato|CFGM|CFGS,ESO | Bachillerato | Ciclos Formativos,Múltiples familias,ALTA,centros_educativos
28021008,VISTA ALEGRE,IES,Público,Madrid,Madrid,Comunidad de Madrid,CALLE del General Ricardos 177,28025.0,914628600,ies.vistaalegre.madrid@educa.madrid.org,http://www.educa.madrid.org/ies.vistaalegre.madrid,40.795128,-3.740904,2024-25,ESO|Bachillerato|CFGM|CFGS,ESO | Bachillerato | Ciclos Formativos,Múltiples familias,ALTA,centros_educativos
28021252,PACIFICO,IES,Público,Madrid,Madrid,Comunidad de Madrid,CALLE de Luis Mitjans 41,28007.0,915523979,ies.pacifico.madrid@educa.madrid.org,http://www.educa.madrid.org/ies.pacifico.madrid,40.814067,-3.672807,2024-25,ESO|Bachillerato|CFGM|CFGS,ESO | Bachillerato | Ciclos Formativos,Múltiples familias,ALTA,centros_educativos
28021549,PALOMERAS VALLECAS,IES,Público,Madrid,Madrid,Comunidad de Madrid,CALLE de Mercator 4,28031.0,913314503,ies.palomerasvallecas.madrid@educa.madrid.org,http://www.educa.madrid.org/ies.palomerasvallecas.madrid,40.798007,-3.633479,2024-25,ESO|Bachillerato|CFGM|CFGS,ESO | Bachillerato | Ciclos Formativos,Múltiples familias,ALTA,centros_educativos
28021550,GARCIA MORATO,IES,Público,Madrid,Madrid,Comunidad de Madrid,CALLE del General Saliquet 34,28044.0,917056300,ies.garciamorato.madrid@educa.madrid.org,ies.garciamorato.madrid.educa.madrid.org,40.784081,-3.772414,2024-25,ESO|Bachillerato|CFGM|CFGS,ESO | Bachillerato | Ciclos Formativos,Múltiples familias,ALTA,centros_educativos
28021562,GRAN CAPITÁN,IES,Público,Madrid,Madrid,Comunidad de Madrid,PASEO de los Melancólicos 51,28005.0,913659190,ies.grancapitan.madrid@educa.madrid.org,http://www.educa.madrid.org/ies.grancapitan.madrid,40.813736,-3.724464,2024-25,ESO|Bachillerato|CFGM|CFGS,ESO | Bachillerato | Ciclos Formativos,Múltiples familias,ALTA,centros_educativos
28021604,AFUERA I,CPR FPE,Privado,Madrid,Madrid,Comunidad de Madrid,PLAZA de Santa Ana 13,28012.0,914295151,direcciontecnica@afuera.com,http://www.centroafuera.es,40.824342,-3.705523,2024-25,CFGM|CFGS,Técnico Superior en Administración y Finanzas | Técnico en Gestión Administrativa,Administración y Gestión,BAJA,centros_educativos
28022207,CARMEN MARTIN GAITE,IES,Público,Moralzarzal,Madrid,Comunidad de Madrid,AVDA del Marqués de Santillana 14,28411.0,918578517,ies.carmenmartingai.moralzarzal@educa.madrid.org,http://www.educa.madrid.org/ies.carmenmartingai.moralzarzal,41.084581,-3.980433,2024-25,ESO|Bachillerato|CFGM|CFGS,ESO | Bachillerato | Ciclos Formativos,Múltiples familias,ALTA,centros_educativos
28022323,TEIDE II,CPR FPE,Concertado,Madrid,Madrid,Comunidad de Madrid,CALLE Mayor 49,28013.0,915483931,cc.teideii.madrid@educa.madrid.org,http://www.teideformacion.com,40.825755,-3.713436,2024-25,CFGM|CFGS,Técnico Superior en Administración y Finanzas | Técnico en Gestión Administrativa,Administración y Gestión,ALTA,centros_educativos
28022578,JOSE RAMON OTERO,CPR FPE,Concertado,Madrid,Madrid,Comunidad de Madrid,CALLE de Francisco Brizuela 1,28011.0,914635593,cc.joseramonotero.madrid@educa.madrid.org,http://www.jrotero.com/nuestro-centro/,40.819484,-3.743227,2024-25,CFGM|CFGS,Técnico Superior en Administración y Finanzas | Técnico en Gestión Administrativa,Administración y Gestión,ALTA,centros_educativos
28022621,FUENLLANA,CPR FPE,Privado,Madrid,Madrid,Comunidad de Madrid,CALLE de los Artistas 38,28020.0,915544806,cc.fuenllana.madrid@educa.madrid.org,http://www.educa.madrid.org/cc.fuenllana.madrid,40.8574,-3.704521,2024-25,CFGM|CFGS,Técnico Superior en Administración y Finanzas | Técnico en Gestión Administrativa,Administración y Gestión,BAJA,centros_educativos
28022712,ESCUELA TECNICO PROFESIONAL DE LA SALUD DE LA COMUNIDAD DE MADRID,IES,Público,Madrid,Madrid,Comunidad de Madrid,CALLE del Doctor Esquerdo 46,28009.0,915868912,ies.salud.madrid@educa.madrid.org,http://www.educa.madrid.org/ies.salud.madrid,40.829341,-3.674064,2024-25,ESO|Bachillerato|CFGM|CFGS,Técnico en Cuidados Auxiliares de Enfermería | Técnico Superior en Anatomía Patológica y Citodiagnóstico | Técnico Superior en Imagen para el Diagnóstico y Medicina Nuclear | Técnico Superior en Laboratorio Clínico y Biomédico | Técnico Superior en Salud Ambiental,Sanidad,BAJA,centros_educativos
28022724,CIUDAD ESCOLAR,IES,Público,Madrid,Madrid,Comunidad de Madrid,"CTRA de Colmenar Viejo k12,8",28049.0,917341244,ies.ciudadescolar.madrid@educa.madrid.org,http://www.educa.madrid.org/ies.ciudadescolar.madrid,40.93473,-3.689686,2024-25,ESO|Bachillerato|CFGM|CFGS,ESO | Bachillerato | Ciclos Formativos,Múltiples familias,ALTA,centros_educativos
28022751,SAN PABLO-CEU,CPR FPE,Privado,Madrid,Madrid,Comunidad de Madrid,CMNO de las Moreras,28040.0,915447040,,,40.864391,-3.718419,2024-25,CFGM|CFGS,Técnico Superior en Administración y Finanzas | Técnico en Gestión Administrativa,Administración y Gestión,BAJA,centros_educativos
28023194,FELIPE TRIGO,IES,Público,Móstoles,Madrid,Comunidad de Madrid,CALLE del Pintor Velázquez 66,28935.0,916138035,ies.felipetrigo.mostoles@educa.madrid.org,http://www.educa.madrid.org/ies.felipetrigo.mostoles,40.730172,-3.886113,2024-25,ESO|Bachillerato|CFGM|CFGS,ESO | Bachillerato | Ciclos Formativos,Múltiples familias,ALTA,centros_educativos
28023212,JUAN GRIS,IES,Público,Móstoles,Madrid,Comunidad de Madrid,CALLE Nueva York 44,28936.0,916459818,ies.juangris.mostoles@educa.madrid.org,http://www.educa.madrid.org/ies.juangris.mostoles,40.723768,-3.859185,2024-25,ESO|Bachillerato|CFGM|CFGS,ESO | Bachillerato | Ciclos Formativos,Múltiples familias,BAJA,centros_educativos
28023327,CARMEN MARTIN GAITE,IES,Público,Navalcarnero,Madrid,Comunidad de Madrid,CTRA DE CADALSO DE LOS VIDRIOS s/n,28600.0,918110565,ies.carmenmartingai.navalcarnero@educa.madrid.org,http://www.educa.madrid.org/ies.carmenmartingai.navalcarnero,40.697228,-4.02629,2024-25,ESO|Bachillerato|CFGM|CFGS,ESO | Bachillerato | Ciclos Formativos,Múltiples familias,ALTA,centros_educativos
28023911,GERARDO DIEGO,IES,Público,Pozuelo de Alarcón,Madrid,Comunidad de Madrid,CALLE Irlanda s/n,28224.0,913521003,ies.gerardodiego.pozuelodealarcon@educa.madrid.org,http://www.educa.madrid.org/ies.gerardodiego.pozuelodealarcon,40.853059,-3.792137,2024-25,ESO|Bachillerato|CFGM|CFGS,ESO | Bachillerato | Ciclos Formativos,Múltiples familias,ALTA,centros_educativos
28024290,VEGA DEL JARAMA,IES,Público,San Fernando de Henares,Madrid,Comunidad de Madrid,AVDA de Irún 18,28830.0,916711104,ies.vegadeljarama.sanfernando@educa.madrid.org,http://www.educa.madrid.org/ies.vegadeljarama.sanfernando,40.833466,-3.532468,2024-25,ESO|Bachillerato|CFGM|CFGS,ESO | Bachillerato | Ciclos Formativos,Múltiples familias,ALTA,centros_educativos
28024642,JOAN MIRO,IES,Público,San Sebastián de los Reyes,Madrid,Comunidad de Madrid,CALLE de la Isla de la Palma 31,28703.0,916527002,ies.joanmiro.sansebastian@educa.madrid.org,http://www.educa.madrid.org/ies.joanmiro.sansebastian,40.968348,-3.628117,2024-25,ESO|Bachillerato|CFGM|CFGS,ESO | Bachillerato | Ciclos Formativos,Múltiples familias,ALTA,centros_educativos
28025014,ISAAC PERAL,IES,Público,Torrejón de Ardoz,Madrid,Comunidad de Madrid,CALLE Plata 78,28850.0,916756936,ies.isaacperal.torrejondeardoz@educa.madrid.org,http://www.educa.madrid.org/ies.isaacperal.torrejondeardoz,40.865782,-3.455632,2024-25,ESO|Bachillerato|CFGM|CFGS,ESO | Bachillerato | Ciclos Formativos,Múltiples familias,ALTA,centros_educativos
28025026,LAS VEREDILLAS,IES,Público,Torrejón de Ardoz,Madrid,Comunidad de Madrid,CALLE Lisboa 53,28850.0,916753049,ies.lasveredillas.torrejondeardoz@educa.madrid.org,http://www.educa.madrid.org/ies.lasveredillas.torrejondeardoz,40.876269,-3.473814,2024-25,ESO|Bachillerato|CFGM|CFGS,ESO | Bachillerato | Ciclos Formativos,Múltiples familias,ALTA,centros_educativos
28025129,ALTO JARAMA,IES,Público,Torrelaguna,Madrid,Comunidad de Madrid,CALLE Caja Ahorros y Monte de Piedad 13,28180.0,918485654,ies.altojarama.torrelaguna@educa.madrid.org,http://www.educa.madrid.org/ies.altojarama.torrelaguna,41.238894,-3.544839,2024-25,ESO|Bachillerato|CFGM|CFGS,ESO | Bachillerato | Ciclos Formativos,Múltiples familias,ALTA,centros_educativos
28025324,ARZOBISPO MORCILLO,CPR FPE,Concertado,Valdemoro,Madrid,Comunidad de Madrid,CALLE Estrella de Elola 10,28341.0,918950116,cc.arzobispomorcillo.valdemoro@educa.madrid.org,http://www.educa.madrid.org/cc.arzobispomorcillo.valdemoro,40.60089,-3.682697,2024-25,CFGM|CFGS,Técnico Superior en Administración y Finanzas | Técnico en Gestión Administrativa,Administración y Gestión,ALTA,centros_educativos
28025658,NUESTRA SEÑORA DE LA VICTORIA DE LEPANTO,IES,Público,Villarejo de Salvanés,Madrid,Comunidad de Madrid,CALLE de Luis de Requesens 1,28590.0,918744170,ies.victoria.villarejo@educa.madrid.org,http://www.educa.madrid.org/ies.victoria.villarejo,40.576591,-3.278198,2024-25,ESO|Bachillerato|CFGM|CFGS,ESO | Bachillerato | Ciclos Formativos,Múltiples familias,ALTA,centros_educativos
28025828,FELIPE II,IES,Público,Madrid,Madrid,Comunidad de Madrid,CALLE de Valdebernardo 1,28030.0,917731854,ies.felipesegundo.madrid@educa.madrid.org,http://www.educa.madrid.org/ies.felipesegundo.madrid,40.807469,-3.637813,2024-25,ESO|Bachillerato|CFGM|CFGS,ESO | Bachillerato | Ciclos Formativos,Múltiples familias,ALTA,centros_educativos
28025877,INGLAN,CPR FPE,Concertado,Getafe,Madrid,Comunidad de Madrid,CALLE de la Paloma 5,28904.0,916951369,cc.inglan.getafe@educa.madrid.org,,40.718751,-3.734753,2024-25,CFGM|CFGS,Técnico Superior en Administración y Finanzas | Técnico en Gestión Administrativa,Administración y Gestión,ALTA,centros_educativos
28025919,INSTITUTO RADIO TELEVISION ESPAÑOLA (INSTITUTO RTVE),CPR FPE,Privado,Madrid,Madrid,Comunidad de Madrid,CTRA de la Dehesa de la Villa s/n,28040.0,915817654,formacion.profesional@rtve.es,https://www.rtve.es/instituto,40.865778,-3.73596,2024-25,CFGS,Técnico Superior en Producción de Audiovisuales y Espectáculos | Técnico Superior en Realización de Proyectos Audiovisuales y Espectáculos | Técnico Superior en Imagen | Técnico Superior en Sonido para Audiovisuales y Espectáculos,"Comunicación, Imagen y Sonido",ALTA,centros_educativos
28026031,VICENTE ALEIXANDRE,IES,Público,Pinto,Madrid,Comunidad de Madrid,CALLE Asturias 20,28320.0,916910012,ies.vicentealeixand.pinto@educa.madrid.org,http://www.educa.madrid.org/ies.vicentealeixand.pinto,40.66078,-3.697042,2024-25,ESO|Bachillerato|CFGM|CFGS,ESO | Bachillerato | Ciclos Formativos,Múltiples familias,ALTA,centros_educativos
28026092,LOS CASTILLOS,IES,Público,Alcorcón,Madrid,Comunidad de Madrid,AVDA de los Castillos 5,28925.0,916121063,ies.loscastillos.alcorcon@educa.madrid.org,http://www.educa.madrid.org/ies.loscastillos.alcorcon,40.767334,-3.815041,2024-25,ESO|Bachillerato|CFGM|CFGS,ESO | Bachillerato | Ciclos Formativos,Múltiples familias,ALTA,centros_educativos
28027916,PUERTA DE HIERRO,CP FPE,Público,Madrid,Madrid,Comunidad de Madrid,CALLE de San Martín de Porres 4,28035.0,913162340,fpe.puertadehierro.madrid@educa.madrid.org,http://www.educa.madrid.org/fpe.puertadehierro.madrid,40.876179,-3.731186,2024-25,CFGM|CFGS,Técnico Superior en Administración y Finanzas | Técnico en Gestión Administrativa,Administración y Gestión,BAJA,centros_educativos
28028301,ARQUITECTO PEDRO GUMIEL,IES,Público,Alcalá de Henares,Madrid,Comunidad de Madrid,CALLE Loeches 1,28806.0,918898162,ies.arquitectopedro.alcala@educa.madrid.org,http://www.educa.madrid.org/ies.arquitectopedro.alcala,40.904816,-3.381442,2024-25,ESO|Bachillerato|CFGM|CFGS,ESO | Bachillerato | Ciclos Formativos,Múltiples familias,ALTA,centros_educativos
28028350,MARIA MOLINER,IES,Público,Coslada,Madrid,Comunidad de Madrid,AVDA de España 115,28822.0,916710784,ies.mariamoliner.coslada@educa.madrid.org,http://www.educa.madrid.org/ies.mariamoliner.coslada,40.832622,-3.552612,2024-25,ESO|Bachillerato|CFGM|CFGS,ESO | Bachillerato | Ciclos Formativos,Múltiples familias,ALTA,centros_educativos
28028374,DIONISIO AGUADO,IES,Público,Fuenlabrada,Madrid,Comunidad de Madrid,CALLE de Italia 14,28943.0,916076232,ies.dionisioaguado.fuenlabrada@educa.madrid.org,http://www.educa.madrid.org/ies.dionisioaguado.fuenlabrada,40.693103,-3.810774,2024-25,ESO|Bachillerato|CFGM|CFGS,ESO | Bachillerato | Ciclos Formativos,Múltiples familias,ALTA,centros_educativos
28028404,BUTARQUE,IES,Público,Leganés,Madrid,Comunidad de Madrid,CALLE Adolfo Marsillach 5,28918.0,916802011,ies.butarque.leganes@educa.madrid.org,http://www.educa.madrid.org/ies.butarque.leganes,40.746969,-3.76374,2024-25,ESO|Bachillerato|CFGM|CFGS,ESO | Bachillerato | Ciclos Formativos,Múltiples familias,ALTA,centros_educativos
28028428,AVENIDA DE LOS TOREROS,IES,Público,Madrid,Madrid,Comunidad de Madrid,AVDA de los Toreros 57,28028.0,913552326,ies.avenidadelostor.madrid@educa.madrid.org,http://www.educa.madrid.org/ies.avenidadelostor.madrid,40.843532,-3.668965,2024-25,ESO|Bachillerato|CFGM|CFGS,ESO | Bachillerato | Ciclos Formativos,Múltiples familias,ALTA,centros_educativos
28028431,MARIANO JOSE DE LARRA,IES,Público,Madrid,Madrid,Comunidad de Madrid,CALLE de Camarena 181,28047.0,917192105,ies.larra.madrid@educa.madrid.org,http://www.educa.madrid.org/ies.larra.madrid,40.798227,-3.758542,2024-25,ESO|Bachillerato|CFGM|CFGS,ESO | Bachillerato | Ciclos Formativos,Múltiples familias,ALTA,centros_educativos
28028453,LA ESTRELLA,IES,Público,Madrid,Madrid,Comunidad de Madrid,CALLE de la Estrella Polar 10,28007.0,914095211,ies.laestrella.madrid@educa.madrid.org,http://www.educa.madrid.org/ies.laestrella.madrid,40.819458,-3.670763,2024-25,ESO|Bachillerato|CFGM|CFGS,ESO | Bachillerato | Ciclos Formativos,Múltiples familias,ALTA,centros_educativos
28028465,SAN JUAN BAUTISTA,IES,Público,Madrid,Madrid,Comunidad de Madrid,CALLE de San Nemesio 1,28043.0,914137961,ies.sanjuanbautista.madrid@educa.madrid.org,http://www.educa.madrid.org/ies.sanjuanbautista.madrid,40.862082,-3.662364,2024-25,ESO|Bachillerato|CFGM|CFGS,ESO | Bachillerato | Ciclos Formativos,Múltiples familias,ALTA,centros_educativos
28028477,JAIME VERA,IES,Público,Madrid,Madrid,Comunidad de Madrid,CALLE de la Infanta Mercedes 47,28020.0,915700250,ies.jaimevera.madrid@educa.madrid.org,http://www.educa.madrid.org/ies.jaimevera.madrid,40.867044,-3.702416,2024-25,ESO|Bachillerato|CFGM|CFGS,ESO | Bachillerato | Ciclos Formativos,Múltiples familias,ALTA,centros_educativos
28028568,MANUEL DE FALLA,IES,Público,Móstoles,Madrid,Comunidad de Madrid,AVDA Olímpica 16,28935.0,916171074,ies.manueldefalla.mostoles@educa.madrid.org,http://www.educa.madrid.org/ies.manueldefalla.mostoles,40.737873,-3.889472,2024-25,ESO|Bachillerato|CFGM|CFGS,ESO | Bachillerato | Ciclos Formativos,Múltiples familias,ALTA,centros_educativos
28028571,LAS ROZAS I,IES,Público,"Rozas de Madrid, Las",Madrid,Comunidad de Madrid,CALLE Real 52,28231.0,916374006,ies.uno.lasrozas@educa.madrid.org,http://www.educa.madrid.org/ies.uno.lasrozas,40.899415,-3.87335,2024-25,ESO|Bachillerato|CFGM|CFGS,ESO | Bachillerato | Ciclos Formativos,Múltiples familias,ALTA,centros_educativos
28028611,GONZALO TORRENTE BALLESTER,IES,Público,San Sebastián de los Reyes,Madrid,Comunidad de Madrid,AVDA de Aragón 12,28702.0,916526533,ies.torrenteballest.sansebastian@educa.madrid.org,http://www.educa.madrid.org/ies.torrenteballest.sansebastian,40.969106,-3.633127,2024-25,ESO|Bachillerato|CFGM|CFGS,ESO | Bachillerato | Ciclos Formativos,Múltiples familias,ALTA,centros_educativos
28028672,RAMIRO DE MAEZTU,IES,Público,Madrid,Madrid,Comunidad de Madrid,CALLE de Serrano 127,28006.0,915617838,ies.ramirodemaeztu.madrid@educa.madrid.org,http://www.educa.madrid.org/ies.ramirodemaeztu.madrid,40.852368,-3.690385,2024-25,ESO|Bachillerato|CFGM|CFGS,ESO | Bachillerato | Ciclos Formativos,Múltiples familias,ALTA,centros_educativos
28028684,JUAN DE HERRERA,IES,Público,San Lorenzo de El Escorial,Madrid,Comunidad de Madrid,CTRA de Guadarrama s/n,28200.0,918902470,ies.juandeherrera.sanlorenzo@educa.madrid.org,http://www.educa.madrid.org/ies.juandeherrera.sanlorenzo,41.012801,-4.132091,2024-25,ESO|Bachillerato|CFGM|CFGS,ESO | Bachillerato | Ciclos Formativos,Múltiples familias,ALTA,centros_educativos
28029251,SILVERIO LANZA,IES,Público,Getafe,Madrid,Comunidad de Madrid,AVDA de las Ciudades 17,28903.0,916810815,ies.silveriolanza.getafe@educa.madrid.org,http://www.educa.madrid.org/ies.silveriolanza.getafe,40.729235,-3.725584,2024-25,ESO|Bachillerato|CFGM|CFGS,ESO | Bachillerato | Ciclos Formativos,Múltiples familias,BAJA,centros_educativos
28029263,CENTRO DE ESTUDIOS SOL,CPR FPE,Privado,Madrid,Madrid,Comunidad de Madrid,CALLE del Duque de Alba 15,28012.0,913690411,,,40.821555,-3.711019,2024-25,CFGM|CFGS,Técnico Superior en Administración y Finanzas | Técnico en Gestión Administrativa,Administración y Gestión,BAJA,centros_educativos
28030137,FORTUNY,IES,Público,Madrid,Madrid,Comunidad de Madrid,CALLE de Fortuny 24,28010.0,913101839,ies.fortuny.madrid@educa.madrid.org,http://www.educa.madrid.org/ies.fortuny.madrid,40.843771,-3.694151,2024-25,ESO|Bachillerato|CFGM|CFGS,ESO | Bachillerato | Ciclos Formativos,Múltiples familias,ALTA,centros_educativos
28030149,CIUDAD DE LOS POETAS,IES,Público,Madrid,Madrid,Comunidad de Madrid,CALLE de Valdesangil 25,28039.0,913736900,ies.ciudaddelospoetas.madrid@educa.madrid.org,http://www.educa.madrid.org/ies.ciudaddelospoetas.madrid,40.877861,-3.722053,2024-25,ESO|Bachillerato|CFGM|CFGS,ESO | Bachillerato | Ciclos Formativos,Múltiples familias,ALTA,centros_educativos
28030150,RAMON Y CAJAL,IES,Público,Madrid,Madrid,Comunidad de Madrid,AVDA de Manoteras 55,28050.0,917660911,ies.ramonycajal.madrid@educa.madrid.org,http://www.educa.madrid.org/ies.ramonycajal.madrid,40.897533,-3.664131,2024-25,ESO|Bachillerato|CFGM|CFGS,ESO | Bachillerato | Ciclos Formativos,Múltiples familias,ALTA,centros_educativos
28030162,MIGUEL DELIBES,IES,Público,Madrid,Madrid,Comunidad de Madrid,CALLE de Villaescusa 17,28017.0,917541070,ies.delibes.madrid@educa.madrid.org,http://www.educa.madrid.org/ies.delibes.madrid,40.832187,-3.635334,2024-25,ESO|Bachillerato|CFGM|CFGS,ESO | Bachillerato | Ciclos Formativos,Múltiples familias,ALTA,centros_educativos
28030174,CELESTINO MUTIS,IES,Público,Madrid,Madrid,Comunidad de Madrid,CALLE de Huerta de Villaverde 15,28021.0,917954006,ies.celestinomutis.madrid@educa.madrid.org,http://www.educa.madrid.org/ies.celestinomutis.madrid,40.758071,-3.717344,2024-25,ESO|Bachillerato|CFGM|CFGS,ESO | Bachillerato | Ciclos Formativos,Múltiples familias,ALTA,centros_educativos
28030186,DAMASO ALONSO,IES,Público,Madrid,Madrid,Comunidad de Madrid,CALLE de Alfredo Marquerie 21,28034.0,917388675,ies.damasoalonso.madrid@educa.madrid.org,http://www.educa.madrid.org/ies.damasoalonso.madrid,40.897291,-3.704861,2024-25,ESO|Bachillerato|CFGM|CFGS,ESO | Bachillerato | Ciclos Formativos,Múltiples familias,ALTA,centros_educativos
28030216,HUMANEJOS,IES,Público,Parla,Madrid,Comunidad de Madrid,AVDA Juan Carlos I 19,28981.0,916982906,ies.humanejos.parla@educa.madrid.org,www.ieshumanejos.com,40.638294,-3.773652,2024-25,ESO|Bachillerato|CFGM|CFGS,ESO | Bachillerato | Ciclos Formativos,Múltiples familias,ALTA,centros_educativos
28030228,LEON FELIPE,IES,Público,Torrejón de Ardoz,Madrid,Comunidad de Madrid,CALLE San Fernando s/n,28850.0,916768112,ies.leonfelipe.torrejondeardoz@educa.madrid.org,http://www.educa.madrid.org/ies.leonfelipe.torrejondeardoz,40.871907,-3.489602,2024-25,ESO|Bachillerato|CFGM|CFGS,ESO | Bachillerato | Ciclos Formativos,Múltiples familias,ALTA,centros_educativos
28030241,PRADO DE SANTO DOMINGO,IES,Público,Alcorcón,Madrid,Comunidad de Madrid,AVDA ESTEBAN MARQUEZ 3,28922.0,916439100,ies.pradodesantodomingo.alcorcon@educa.madrid.org,http://www.educa.madrid.org/ies.pradodesantodomingo.alcorcon,40.750241,-3.845998,2024-25,ESO|Bachillerato|CFGM|CFGS,ESO | Bachillerato | Ciclos Formativos,Múltiples familias,ALTA,centros_educativos
28030575,ARTURO SORIA,IES,Público,Madrid,Madrid,Comunidad de Madrid,CALLE de Somontín 59,28033.0,913028445,ies.arturosoria.madrid@educa.madrid.org,http://www.educa.madrid.org/ies.arturosoria.madrid,40.887839,-3.664307,2024-25,ESO|Bachillerato|CFGM|CFGS,ESO | Bachillerato | Ciclos Formativos,Múltiples familias,ALTA,centros_educativos
28030903,MATEO ALEMAN,IES,Público,Alcalá de Henares,Madrid,Comunidad de Madrid,AVDA del Ejército 89,28802.0,918882431,ies.mateoaleman.alcala@educa.madrid.org,http://www.educa.madrid.org/ies.mateoaleman.alcala,40.888432,-3.385123,2024-25,ESO|Bachillerato|CFGM|CFGS,ESO | Bachillerato | Ciclos Formativos,Múltiples familias,ALTA,centros_educativos
28030915,GALILEO GALILEI,IES,Público,Alcorcón,Madrid,Comunidad de Madrid,AVDA de Retamas 2,28922.0,916440235,ies.galileogalilei.alcorcon@educa.madrid.org,http://www.educa.madrid.org/ies.galileogalilei.alcorcon,40.749793,-3.844286,2024-25,ESO|Bachillerato|CFGM|CFGS,ESO | Bachillerato | Ciclos Formativos,Múltiples familias,ALTA,centros_educativos
28030927,BLAS DE OTERO,IES,Público,Madrid,Madrid,Comunidad de Madrid,CALLE de Maqueda 130,28024.0,917191511,ies.blasdeotero.madrid@educa.madrid.org,http://www.educa.madrid.org/ies.blasdeotero.madrid,40.798804,-3.766835,2024-25,ESO|Bachillerato|CFGM|CFGS,ESO | Bachillerato | Ciclos Formativos,Múltiples familias,ALTA,centros_educativos
28030939,SAN MATEO,IES,Público,Madrid,Madrid,Comunidad de Madrid,CALLE de la Beneficencia 4,28004.0,912760274,ies.sanmateo.madrid@educa.madrid.org,http://www.educa.madrid.org/ies.sanmateo.madrid,40.835559,-3.704396,2024-25,ESO|Bachillerato|CFGM|CFGS,ESO | Bachillerato | Ciclos Formativos,Múltiples familias,ALTA,centros_educativos
28030952,MARIANA PINEDA,IES,Público,Madrid,Madrid,Comunidad de Madrid,CALLE del Alcalde Garrido Juaristi 8,28030.0,914302111,ies.marianapineda.madrid@educa.madrid.org,http://www.educa.madrid.org/ies.marianapineda.madrid,40.823674,-3.659705,2024-25,ESO|Bachillerato|CFGM|CFGS,ESO | Bachillerato | Ciclos Formativos,Múltiples familias,ALTA,centros_educativos
28030964,VALLECAS-MAGERIT,IES,Público,Madrid,Madrid,Comunidad de Madrid,CALLE de Antonio Folgueras 27,28018.0,914780023,ies.magerit.madrid@educa.madrid.org,www.vmagerit.com,40.798858,-3.665102,2024-25,ESO|Bachillerato|CFGM|CFGS,ESO | Bachillerato | Ciclos Formativos,Múltiples familias,ALTA,centros_educativos
28030976,LAS MUSAS,IES,Público,Madrid,Madrid,Comunidad de Madrid,CALLE de Carlos II s/n,28022.0,913065946,ies.lasmusas.madrid@educa.madrid.org,http://www.educa.madrid.org/ies.lasmusas.madrid,40.838696,-3.611602,2024-25,ESO|Bachillerato|CFGM|CFGS,ESO | Bachillerato | Ciclos Formativos,Múltiples familias,ALTA,centros_educativos
28030991,BARRIO DE BILBAO,CP IFP,Público,Madrid,Madrid,Comunidad de Madrid,CALLE de Villaescusa 19,28017.0,913041018,cifp.barriodebilbao.madrid@educa.madrid.org,http://www.educa.madrid.org/cifp.barriodebilbao.madrid,40.831064,-3.634398,2024-25,FP Básica|CFGM|CFGS,Ciclos Formativos de Grado Medio y Superior,Múltiples familias,ALTA,centros_educativos
28031002,LEONARDO DA VINCI,IES,Público,Madrid,Madrid,Comunidad de Madrid,CALLE del General Romero Basart 90,28044.0,917064970,ies.leonardodavinci.madrid@educa.madrid.org,http://www.educa.madrid.org/ies.leonardodavinci.madrid,40.788082,-3.768075,2024-25,ESO|Bachillerato|CFGM|CFGS,ESO | Bachillerato | Ciclos Formativos,Múltiples familias,ALTA,centros_educativos
28031014,MORATALAZ,IES,Público,Madrid,Madrid,Comunidad de Madrid,CALLE del Corregidor Diego de Valderrábano 35,28030.0,914306809,ies.moratalaz.madrid@educa.madrid.org,http://www.educa.madrid.org/ies.moratalaz.madrid,40.822721,-3.662245,2024-25,ESO|Bachillerato|CFGM|CFGS,ESO | Bachillerato | Ciclos Formativos,Múltiples familias,ALTA,centros_educativos
28031191,CEPAL,CPR FPE,Privado,Madrid,Madrid,Comunidad de Madrid,CALLE del Marqués de Ahumada 5,28028.0,913559799,cc.cepal.madrid@educa.madrid.org,http://www.educa.madrid.org/cc.cepal.madrid,40.846458,-3.673348,2024-25,CFGM|CFGS,Técnico Superior en Administración y Finanzas | Técnico en Gestión Administrativa,Administración y Gestión,BAJA,centros_educativos
28031555,ESCUELA SUPERIOR DE HOSTELERIA Y TURISMO,IES,Público,Madrid,Madrid,Comunidad de Madrid,PASEO de la Puerta del Ángel (Ferial Casa de Campo) 5,28011.0,914631100,ies.hosteleria.madrid@educa.madrid.org,http://www.educa.madrid.org/ies.hosteleria.madrid,40.825516,-3.737187,2024-25,ESO|Bachillerato|CFGM|CFGS,Técnico en Cocina y Gastronomía | Técnico Superior en Dirección de Cocina | Técnico Superior en Agencias de Viajes y Gestión de Eventos | Técnico Superior en Gestión de Alojamientos Turísticos,Hostelería y Turismo,ALTA,centros_educativos
28031592,CENTRO DE FORMACION TECNICA,CPR FPE,Privado,Madrid,Madrid,Comunidad de Madrid,CALLE de Carretas 14,28012.0,915211939,cenfortec@cenfortec.es,www.cenfortec.es,40.824924,-3.707794,2024-25,CFGM|CFGS,Técnico Superior en Administración y Finanzas | Técnico en Gestión Administrativa,Administración y Gestión,BAJA,centros_educativos
28032018,ESCUELA POLITECNICA GINER,CPR FPE,Concertado,Madrid,Madrid,Comunidad de Madrid,CALLE de Maqueda 8,28024.0,915181377,cc.epginer.madrid@educa.madrid.org,http://www.escuelaginer.com,40.804224,-3.770312,2024-25,CFGM|CFGS,Técnico Superior en Administración y Finanzas | Técnico en Gestión Administrativa,Administración y Gestión,ALTA,centros_educativos
28032110,HEASE,CPR FPE,Concertado,Madrid,Madrid,Comunidad de Madrid,CALLE de la Plata 6,28021.0,917977610,cc.hease.madrid@educa.madrid.org,http://www.educa.madrid.org/cc.hease.madrid,40.758017,-3.711574,2024-25,CFGM|CFGS,Técnico Superior en Administración y Finanzas | Técnico en Gestión Administrativa,Administración y Gestión,ALTA,centros_educativos
28032471,ARQUITECTO PERIDIS,IES,Público,Leganés,Madrid,Comunidad de Madrid,AVDA Alemania 19,28916.0,916867274,ies.arquitectoperid.leganes@educa.madrid.org,http://www.educa.madrid.org/ies.arquitectoperid.leganes,40.74402,-3.745442,2024-25,ESO|Bachillerato|CFGM|CFGS,ESO | Bachillerato | Ciclos Formativos,Múltiples familias,ALTA,centros_educativos
28032481,CIUDAD DE JAEN,IES,Público,Madrid,Madrid,Comunidad de Madrid,CMNO del Río 5,28041.0,913173000,ies.ciudaddejaen.madrid@educa.madrid.org,http://www.educa.madrid.org/ies.ciudaddejaen.madrid,40.781637,-3.704395,2024-25,ESO|Bachillerato|CFGM|CFGS,ESO | Bachillerato | Ciclos Formativos,Múltiples familias,ALTA,centros_educativos
28032501,LEONARDO DA VINCI,IES,Público,Majadahonda,Madrid,Comunidad de Madrid,AVDA Guadarrama 42,28220.0,916387423,ies.leonardodavinci.majadahonda@educa.madrid.org,http://www.educa.madrid.org/ies.leonardodavinci.majadahonda,40.888973,-3.885059,2024-25,ESO|Bachillerato|CFGM|CFGS,ESO | Bachillerato | Ciclos Formativos,Múltiples familias,ALTA,centros_educativos
28032559,ENRIQUE TIERNO GALVAN,IES,Público,Parla,Madrid,Comunidad de Madrid,AVDA Juan Carlos I 12,28981.0,916981111,ies.tiernogalvan.parla@educa.madrid.org,http://www.educa.madrid.org/ies.tiernogalvan.parla,40.635572,-3.772946,2024-25,ESO|Bachillerato|CFGM|CFGS,ESO | Bachillerato | Ciclos Formativos,Múltiples familias,ALTA,centros_educativos
28032833,METRODORA FORMACIÓN PROFESIONAL - AYALA,CPR FPE,Privado,Madrid,Madrid,Comunidad de Madrid,CALLE de Ayala 111,28009.0,914027062,secretariaayala@metrodorafp.com,https://metrodorafp.com/sedes/metrodora-fp-ayala.opesa,40.83715,-3.673764,2024-25,CFGM|CFGS,Técnico Superior en Administración y Finanzas | Técnico en Gestión Administrativa,Administración y Gestión,ALTA,centros_educativos
28033473,CENTRO DE ESTUDIOS PROFESIONALES (C.E.P.),CPR FPE,Concertado,Alcalá de Henares,Madrid,Comunidad de Madrid,CALLE Lope de Vega 1,28805.0,918881475,cc.cep.alcala@educa.madrid.org,http://www.centrocep.es,40.899543,-3.362642,2024-25,CFGM|CFGS,Técnico Superior en Administración y Finanzas | Técnico en Gestión Administrativa,Administración y Gestión,ALTA,centros_educativos
28033539,ALAMEDA DE OSUNA,IES,Público,Madrid,Madrid,Comunidad de Madrid,CALLE de Antonio Sancha 11,28042.0,912761560,ies.alamedadeosuna.madrid@educa.madrid.org,http://www.educa.madrid.org/ies.alamedadeosuna.madrid,40.87044,-3.592646,2024-25,ESO|Bachillerato|CFGM|CFGS,ESO | Bachillerato | Ciclos Formativos,Múltiples familias,ALTA,centros_educativos
28033552,MANUELA MALASAÑA,IES,Público,Móstoles,Madrid,Comunidad de Madrid,CALLE del Desarrollo 50,28938.0,916453978,ies.malasana.mostoles@educa.madrid.org,http://www.educa.madrid.org/ies.malasana.mostoles,40.722619,-3.870407,2024-25,ESO|Bachillerato|CFGM|CFGS,ESO | Bachillerato | Ciclos Formativos,Múltiples familias,ALTA,centros_educativos
28033850,GASPAR MELCHOR DE JOVELLANOS,IES,Público,Fuenlabrada,Madrid,Comunidad de Madrid,CALLE de Móstoles 64,28941.0,916971565,ies.jovellanos.fuenlabrada@educa.madrid.org,http://www.educa.madrid.org/ies.jovellanos.fuenlabrada,40.701737,-3.81011,2024-25,ESO|Bachillerato|CFGM|CFGS,ESO | Bachillerato | Ciclos Formativos,Múltiples familias,ALTA,centros_educativos
28034441,SAN ISIDORO DE SEVILLA,IES,Público,Madrid,Madrid,Comunidad de Madrid,PLAZA del Marqués de Comillas 1,28040.0,915330607,ies.sanisidoro.madrid@educa.madrid.org,http://www.educa.madrid.org/ies.sanisidoro.madrid,40.855242,-3.723623,2024-25,ESO|Bachillerato|CFGM|CFGS,ESO | Bachillerato | Ciclos Formativos,Múltiples familias,ALTA,centros_educativos
28034507,JORGE GUILLEN,IES,Público,Alcorcón,Madrid,Comunidad de Madrid,CALLE del Olímpico Francisco Fernández Ochoa s/n,28923.0,916415711,ies.jorgeguillen.alcorcon@educa.madrid.org,http://www.educa.madrid.org/ies.jorgeguillen.alcorcon,40.749511,-3.824536,2024-25,ESO|Bachillerato|CFGM|CFGS,ESO | Bachillerato | Ciclos Formativos,Múltiples familias,BAJA,centros_educativos
28035241,CENTRO DE ENSEÑANZA AUDIOVISUAL (C.E.A.),CPR FPE,Privado,Collado Villalba,Madrid,Comunidad de Madrid,CALLE de Honorio Lozano 2,28400.0,918505795,cc.cea.colladovillalba@educa.madrid.org,http://www.educa.madrid.org/cc.cea.colladovillalba,41.040995,-4.0116,2024-25,CFGS,Técnico Superior en Producción de Audiovisuales y Espectáculos | Técnico Superior en Realización de Proyectos Audiovisuales y Espectáculos | Técnico Superior en Imagen | Técnico Superior en Sonido para Audiovisuales y Espectáculos,"Comunicación, Imagen y Sonido",BAJA,centros_educativos
28035305,ALONSO QUIJANO,IES,Público,Alcalá de Henares,Madrid,Comunidad de Madrid,PASEO de las Moreras 1,28803.0,918821411,ies.alonsoquijano.alcala@educa.madrid.org,http://www.educa.madrid.org/ies.alonsoquijano.alcala,40.886143,-3.367578,2024-25,ESO|Bachillerato|CFGM|CFGS,ESO | Bachillerato | Ciclos Formativos,Múltiples familias,ALTA,centros_educativos
28035317,JOSE LUIS SAMPEDRO,IES,Público,Tres Cantos,Madrid,Comunidad de Madrid,AVDA de la Vega s/n,28760.0,918031142,ies.sampedro.trescantos@educa.madrid.org,http://www.educa.madrid.org/ies.sampedro.trescantos,41.020113,-3.712306,2024-25,ESO|Bachillerato|CFGM|CFGS,ESO | Bachillerato | Ciclos Formativos,Múltiples familias,ALTA,centros_educativos
28035329,MANUEL AZAÑA,IES,Público,Getafe,Madrid,Comunidad de Madrid,AVDA de las Ciudades s/n,28903.0,916821511,ies.manuelazana.getafe@educa.madrid.org,http://www.educa.madrid.org/ies.manuelazana.getafe,40.728934,-3.727523,2024-25,ESO|Bachillerato|CFGM|CFGS,ESO | Bachillerato | Ciclos Formativos,Múltiples familias,BAJA,centros_educativos
28035330,JUAN DE VILLANUEVA,IES,Público,Madrid,Madrid,Comunidad de Madrid,CALLE del Camino Viejo de Villaverde 28,28041.0,913416343,ies.juandevillanuev.madrid@educa.madrid.org,http://www.educa.madrid.org/ies.juandevillanuev.madrid,40.778726,-3.715528,2024-25,ESO|Bachillerato|CFGM|CFGS,ESO | Bachillerato | Ciclos Formativos,Múltiples familias,ALTA,centros_educativos
28035342,LA DEHESILLA,IES,Público,Cercedilla,Madrid,Comunidad de Madrid,CMNO de la Dehesilla y Rodeo s/n,28470.0,918521763,ies.ladehesilla.cercedilla@educa.madrid.org,http://www.educa.madrid.org/ies.ladehesilla.cercedilla,41.147928,-4.050303,2024-25,ESO|Bachillerato|CFGM|CFGS,ESO | Bachillerato | Ciclos Formativos,Múltiples familias,ALTA,centros_educativos
28036978,LA ARBOLEDA,IES,Público,Alcorcón,Madrid,Comunidad de Madrid,AVDA del Oeste s/n,28922.0,916439991,ies.laarboleda.alcorcon@educa.madrid.org,http://www.educa.madrid.org/ies.laarboleda.alcorcon,40.751483,-3.837722,2024-25,ESO|Bachillerato|CFGM|CFGS,ESO | Bachillerato | Ciclos Formativos,Múltiples familias,ALTA,centros_educativos
28036981,LA POVEDA,IES,Público,Arganda del Rey,Madrid,Comunidad de Madrid,CALLE Monte Potrero s/n,28500.0,918715312,ies.lapoveda.arganda@educa.madrid.org,http://www.educa.madrid.org/ies.lapoveda.arganda,40.723982,-3.477872,2024-25,ESO|Bachillerato|CFGM|CFGS,ESO | Bachillerato | Ciclos Formativos,Múltiples familias,ALTA,centros_educativos
28036991,ANGEL CORELLA,IES,Público,Colmenar Viejo,Madrid,Comunidad de Madrid,CALLE del Pradillo 3,28770.0,918455650,ies.angelcorella.colmenarviejo@educa.madrid.org,http://www.educa.madrid.org/ies.angelcorella.colmenarviejo,41.066008,-3.756755,2024-25,ESO|Bachillerato|CFGM|CFGS,ESO | Bachillerato | Ciclos Formativos,Múltiples familias,ALTA,centros_educativos
28037004,ENRIQUE TIERNO GALVAN,IES,Público,Leganés,Madrid,Comunidad de Madrid,CALLE Agustinos s/n,28914.0,916947859,ies.tiernogalvan.leganes@educa.madrid.org,http://www.educa.madrid.org/ies.tiernogalvan.leganes,40.726893,-3.777424,2024-25,ESO|Bachillerato|CFGM|CFGS,ESO | Bachillerato | Ciclos Formativos,Múltiples familias,ALTA,centros_educativos
28037016,CIUDAD DE LOS ÁNGELES,IES,Público,Madrid,Madrid,Comunidad de Madrid,CALLE de Anoeta 16,28041.0,917962228,ies.ciudaddelosangeles.madrid@educa.madrid.org,http://www.educa.madrid.org/ies.ciudaddelosangeles.madrid,40.76275,-3.700606,2024-25,ESO|Bachillerato|CFGM|CFGS,ESO | Bachillerato | Ciclos Formativos,Múltiples familias,ALTA,centros_educativos
28037028,ROSA CHACEL,IES,Público,Madrid,Madrid,Comunidad de Madrid,CALLE de Abizanda 70,28033.0,913821905,ies.rosachacel.madrid@educa.madrid.org,http://www.educa.madrid.org/ies.rosachacel.madrid,40.887976,-3.654456,2024-25,ESO|Bachillerato|CFGM|CFGS,ESO | Bachillerato | Ciclos Formativos,Múltiples familias,ALTA,centros_educativos
28037031,ANTONIO DOMINGUEZ ORTIZ,IES,Público,Madrid,Madrid,Comunidad de Madrid,CALLE de los Andaluces 36,28038.0,913033235,ies.antoniodomingue.madrid@educa.madrid.org,http://www.educa.madrid.org/ies.antoniodomingue.madrid,40.79894,-3.639379,2024-25,ESO|Bachillerato|CFGM|CFGS,ESO | Bachillerato | Ciclos Formativos,Múltiples familias,ALTA,centros_educativos
28037041,JOAQUÍN RODRIGO,IES,Público,Madrid,Madrid,Comunidad de Madrid,CALLE de Casalarreina 28,28032.0,917762262,ies.joaquinrodrigo.madrid@educa.madrid.org,http://www.educa.madrid.org/ies.joaquinrodrigo.madrid,40.81914,-3.617802,2024-25,ESO|Bachillerato|CFGM|CFGS,ESO | Bachillerato | Ciclos Formativos,Múltiples familias,ALTA,centros_educativos
28037053,PRADOLONGO,IES,Público,Madrid,Madrid,Comunidad de Madrid,CALLE del Albardín 6,28026.0,914699013,ies.pradolongo.madrid@educa.madrid.org,http://www.educa.madrid.org/ies.pradolongo.madrid,40.789465,-3.721545,2024-25,ESO|Bachillerato|CFGM|CFGS,ESO | Bachillerato | Ciclos Formativos,Múltiples familias,ALTA,centros_educativos
28037065,REY FERNANDO VI,IES,Público,San Fernando de Henares,Madrid,Comunidad de Madrid,AVDA de Irún s/n,28830.0,916730241,ies.reyfernando.sanfernando@educa.madrid.org,http://www.educa.madrid.org/ies.reyfernando.sanfernando,40.834045,-3.532058,2024-25,ESO|Bachillerato|CFGM|CFGS,ESO | Bachillerato | Ciclos Formativos,Múltiples familias,ALTA,centros_educativos
28037077,VICTORIA KENT,IES,Público,Torrejón de Ardoz,Madrid,Comunidad de Madrid,CALLE Plata 85,28850.0,916560079,ies.victoriakent.torrejondeardoz@educa.madrid.org,http://www.educa.madrid.org/ies.victoriakent.torrejondeardoz,40.866089,-3.45351,2024-25,ESO|Bachillerato|CFGM|CFGS,ESO | Bachillerato | Ciclos Formativos,Múltiples familias,ALTA,centros_educativos
28037089,DIEGO VELAZQUEZ,IES,Público,Torrelodones,Madrid,Comunidad de Madrid,CALLE del Instituto 1,28250.0,918590405,ies.velazquez.torrelodones@educa.madrid.org,https://www.educa2.madrid.org/web/diego-velazquez,40.990899,-3.941369,2024-25,ESO|Bachillerato|CFGM|CFGS,ESO | Bachillerato | Ciclos Formativos,Múltiples familias,ALTA,centros_educativos
28038008,ESPACIO XXI,CPR FPE,Privado,Madrid,Madrid,Comunidad de Madrid,CALLE de Galileo 26,28015.0,915337321,tutorciclos@espacioxxi.com,,40.842266,-3.714574,2024-25,CFGM|CFGS,Técnico Superior en Administración y Finanzas | Técnico en Gestión Administrativa,Administración y Gestión,BAJA,centros_educativos
28038070,VIRGEN DE LA PAZ,IES,Público,Alcobendas,Madrid,Comunidad de Madrid,CALLE de Francisco Chico Mendes 4,28108.0,916615943,ies.lapaz.alcobendas@educa.madrid.org,http://www.educa.madrid.org/ies.lapaz.alcobendas,40.934378,-3.658798,2024-25,ESO|Bachillerato|CFGM|CFGS,ESO | Bachillerato | Ciclos Formativos,Múltiples familias,ALTA,centros_educativos
28038100,LUIS BUÑUEL,IES,Público,Alcorcón,Madrid,Comunidad de Madrid,CALLE de Berlín 2,28922.0,916107013,ies.luisbunuel.alcorcon@educa.madrid.org,http://www.educa.madrid.org/ies.luisbunuel.alcorcon,40.760429,-3.837703,2024-25,ESO|Bachillerato|CFGM|CFGS,ESO | Bachillerato | Ciclos Formativos,Múltiples familias,ALTA,centros_educativos
28038151,RAFAEL ALBERTI,IES,Público,Coslada,Madrid,Comunidad de Madrid,CALLE de la Virgen de la Cabeza 29,28821.0,916691944,ies.alberti.coslada@educa.madrid.org,http://www.educa.madrid.org/ies.alberti.coslada,40.839984,-3.568165,2024-25,ESO|Bachillerato|CFGM|CFGS,ESO | Bachillerato | Ciclos Formativos,Múltiples familias,ALTA,centros_educativos
28038215,CARPE DIEM,IES,Público,Getafe,Madrid,Comunidad de Madrid,SENDA de Mafalda 2,28905.0,916827161,ies.carpediem.getafe@educa.madrid.org,http://www.educa.madrid.org/ies.carpediem.getafe,40.704125,-3.751981,2024-25,ESO|Bachillerato|CFGM|CFGS,ESO | Bachillerato | Ciclos Formativos,Múltiples familias,BAJA,centros_educativos
28038227,CLARA CAMPOAMOR,IES,Público,Getafe,Madrid,Comunidad de Madrid,SENDA de Mafalda 4,28905.0,916810212,ies.claracampoamor.getafe@educa.madrid.org,http://www.educa.madrid.org/ies.claracampoamor.getafe,40.703708,-3.750887,2024-25,ESO|Bachillerato|CFGM|CFGS,ESO | Bachillerato | Ciclos Formativos,Múltiples familias,BAJA,centros_educativos
28038291,SALVADOR DALI,IES,Público,Leganés,Madrid,Comunidad de Madrid,CALLE Austria 7,28916.0,916862999,ies.salvadordali.leganes@educa.madrid.org,http://www.educa.madrid.org/ies.salvadordali.leganes,40.74678,-3.74719,2024-25,ESO|Bachillerato|CFGM|CFGS,ESO | Bachillerato | Ciclos Formativos,Múltiples familias,ALTA,centros_educativos
28038306,SIGLO XXI,IES,Público,Leganés,Madrid,Comunidad de Madrid,CALLE de la Ingeniería 1,28918.0,916806303,ies.sigloveintiuno.leganes@educa.madrid.org,http://www.educa.madrid.org/ies.sigloveintiuno.leganes,40.748193,-3.768445,2024-25,ESO|Bachillerato|CFGM|CFGS,ESO | Bachillerato | Ciclos Formativos,Múltiples familias,ALTA,centros_educativos
28038355,MIRASIERRA,IES,Público,Madrid,Madrid,Comunidad de Madrid,CALLE de la Portera del Cura 4,28034.0,917346532,ies.mirasierra.madrid@educa.madrid.org,http://www.educa.madrid.org/ies.mirasierra.madrid,40.901171,-3.719612,2024-25,ESO|Bachillerato|CFGM|CFGS,ESO | Bachillerato | Ciclos Formativos,Múltiples familias,ALTA,centros_educativos
28038367,FRANCISCO TOMAS Y VALIENTE,IES,Público,Madrid,Madrid,Comunidad de Madrid,CALLE de Benita Ávila 3,28043.0,917591114,ies.tomasyvaliente.madrid@educa.madrid.org,http://www.educa.madrid.org/ies.tomasyvaliente.madrid,40.87377,-3.654506,2024-25,ESO|Bachillerato|CFGM|CFGS,ESO | Bachillerato | Ciclos Formativos,Múltiples familias,ALTA,centros_educativos
28038379,ISLAS FILIPINAS,IES,Público,Madrid,Madrid,Comunidad de Madrid,CALLE de Jesús Maestro 3,28003.0,915544349,ies.islasfilipinas.madrid@educa.madrid.org,http://www.educa.madrid.org/ies.islasfilipinas.madrid,40.850644,-3.715625,2024-25,ESO|Bachillerato|CFGM|CFGS,ESO | Bachillerato | Ciclos Formativos,Múltiples familias,ALTA,centros_educativos
28038422,LUIS BUÑUEL,IES,Público,Móstoles,Madrid,Comunidad de Madrid,CALLE Orquídea 1,28933.0,912360001,ies.luisbunuel.mostoles@educa.madrid.org,http://www.educa.madrid.org/ies.luisbunuel.mostoles,40.749389,-3.870732,2024-25,ESO|Bachillerato|CFGM|CFGS,ESO | Bachillerato | Ciclos Formativos,Múltiples familias,ALTA,centros_educativos
28038446,NARCIS MONTURIOL,IES,Público,Parla,Madrid,Comunidad de Madrid,CALLE Leganés 38,28981.0,916982811,ies.narcismonturiol.parla@educa.madrid.org,http://www.educa.madrid.org/ies.narcismonturiol.parla,40.652992,-3.781415,2024-25,ESO|Bachillerato|CFGM|CFGS,ESO | Bachillerato | Ciclos Formativos,Múltiples familias,ALTA,centros_educativos
28038616,JAIME FERRAN CLUA,IES,Público,San Fernando de Henares,Madrid,Comunidad de Madrid,AVDA Jean Paul Sartre s/n,28830.0,916723539,ies.jaimeferran.sanfernando@educa.madrid.org,http://www.educa.madrid.org/ies.jaimeferran.sanfernando,40.824721,-3.524192,2024-25,ESO|Bachillerato|CFGM|CFGS,ESO | Bachillerato | Ciclos Formativos,Múltiples familias,ALTA,centros_educativos
28038801,MARIA DE MOLINA,IES,Público,Madrid,Madrid,Comunidad de Madrid,CALLE de Mirabel 22,28044.0,917054289,ies.mariademolina.madrid@educa.madrid.org,http://www.educa.madrid.org/ies.mariademolina.madrid,40.787581,-3.784804,2024-25,ESO|Bachillerato|CFGM|CFGS,ESO | Bachillerato | Ciclos Formativos,Múltiples familias,ALTA,centros_educativos
28038811,ANTONIO MACHADO,IES,Público,Madrid,Madrid,Comunidad de Madrid,CALLE de Alfonso Fernández 25,28044.0,915085940,ies.machado.madrid@educa.madrid.org,http://www.educa.madrid.org/ies.machado.madrid,40.776555,-3.760038,2024-25,ESO|Bachillerato|CFGM|CFGS,ESO | Bachillerato | Ciclos Formativos,Múltiples familias,BAJA,centros_educativos
28038823,ISAAC NEWTON,IES,Público,Madrid,Madrid,Comunidad de Madrid,CALLE de Joaquín Lorenzo 2,28035.0,913732052,ies.newton.madrid@educa.madrid.org,http://www.educa.madrid.org/ies.newton.madrid,40.883101,-3.727048,2024-25,ESO|Bachillerato|CFGM|CFGS,ESO | Bachillerato | Ciclos Formativos,Múltiples familias,ALTA,centros_educativos
28038835,ISIDRA DE GUZMÁN,IES,Público,Alcalá de Henares,Madrid,Comunidad de Madrid,CALLE Gardenia 29,28803.0,918808462,ies.isidradeguzman.alcala@educa.madrid.org,http://www.educa.madrid.org/ies.isidradeguzman.alcala,40.883829,-3.37401,2024-25,ESO|Bachillerato|CFGM|CFGS,ESO | Bachillerato | Ciclos Formativos,Múltiples familias,BAJA,centros_educativos
28038847,SEVERO OCHOA,IES,Público,Alcobendas,Madrid,Comunidad de Madrid,CALLE de Francisco Chico Mendes 3,28108.0,916620443,ies.severoochoa.alcobendas@educa.madrid.org,http://www.educa.madrid.org/ies.severoochoa.alcobendas,40.933712,-3.658435,2024-25,ESO|Bachillerato|CFGM|CFGS,ESO | Bachillerato | Ciclos Formativos,Múltiples familias,ALTA,centros_educativos
28038859,PARQUE DE LISBOA,IES,Público,Alcorcón,Madrid,Comunidad de Madrid,CALLE de la Paz 6,28924.0,916118712,ies.parquelisboa.alcorcon@educa.madrid.org,http://www.educa.madrid.org/ies.parquelisboa.alcorcon,40.760622,-3.817056,2024-25,ESO|Bachillerato|CFGM|CFGS,ESO | Bachillerato | Ciclos Formativos,Múltiples familias,ALTA,centros_educativos
28038860,LA SERNA,IES,Público,Fuenlabrada,Madrid,Comunidad de Madrid,CALLE de Zaragoza 8,28941.0,916062508,ies.laserna.fuenlabrada@educa.madrid.org,http://www.educa.madrid.org/ies.laserna.fuenlabrada,40.705759,-3.798972,2024-25,ESO|Bachillerato|CFGM|CFGS,ESO | Bachillerato | Ciclos Formativos,Múltiples familias,ALTA,centros_educativos
28038872,LA FORTUNA,IES,Público,Leganés,Madrid,Comunidad de Madrid,CALLE Castelo Branco 4,28917.0,916197912,ies.lafortuna.leganes@educa.madrid.org,http://www.educa.madrid.org/ies.lafortuna.leganes,40.769493,-3.788774,2024-25,ESO|Bachillerato|CFGM|CFGS,ESO | Bachillerato | Ciclos Formativos,Múltiples familias,ALTA,centros_educativos
28038884,CLARA CAMPOAMOR,IES,Público,Móstoles,Madrid,Comunidad de Madrid,AVDA de Alcorcón 1,28936.0,916462125,ies.claracampoamor.mostoles@educa.madrid.org,http://www.educa.madrid.org/ies.claracampoamor.mostoles,40.739858,-3.858598,2024-25,ESO|Bachillerato|CFGM|CFGS,ESO | Bachillerato | Ciclos Formativos,Múltiples familias,ALTA,centros_educativos
28038896,VELAZQUEZ,IES,Público,Móstoles,Madrid,Comunidad de Madrid,CALLE del Pintor Velázquez 25,28935.0,916170563,ies.velazquez.mostoles@educa.madrid.org,http://www.educa.madrid.org/ies.velazquez.mostoles,40.740357,-3.877425,2024-25,ESO|Bachillerato|CFGM|CFGS,ESO | Bachillerato | Ciclos Formativos,Múltiples familias,ALTA,centros_educativos
28038902,MANUEL ELKIN PATARROYO,IES,Público,Parla,Madrid,Comunidad de Madrid,CMNO de la Cantueña s/n,28982.0,916986111,ies.manuelelkinpatarroyo.parla@educa.madrid.org,http://www.educa.madrid.org/ies.manuelelkinpatarroyo.parla,40.65344,-3.768338,2024-25,ESO|Bachillerato|CFGM|CFGS,ESO | Bachillerato | Ciclos Formativos,Múltiples familias,ALTA,centros_educativos
28038914,CAMILO JOSE CELA,IES,Público,Pozuelo de Alarcón,Madrid,Comunidad de Madrid,CALLE Islas Cíes 53,28223.0,917155861,ies.camilojosecela.pozuelodealarcon@educa.madrid.org,http://www.educa.madrid.org/ies.camilojosecela.pozuelodealarcon,40.849194,-3.824668,2024-25,ESO|Bachillerato|CFGM|CFGS,ESO | Bachillerato | Ciclos Formativos,Múltiples familias,ALTA,centros_educativos
28038926,VILLA DE VALDEMORO,IES,Público,Valdemoro,Madrid,Comunidad de Madrid,CALLE Herencia s/n,28341.0,918018490,ies.villadevaldemoro.valdemoro@educa.madrid.org,http://www.educa.madrid.org/ies.villadevaldemoro.valdemoro,40.598806,-3.686966,2024-25,ESO|Bachillerato|CFGM|CFGS,ESO | Bachillerato | Ciclos Formativos,Múltiples familias,ALTA,centros_educativos
28039037,ALPAJES,IES,Público,Aranjuez,Madrid,Comunidad de Madrid,CALLE de las Moreras 28,28300.0,918920298,ies.alpajes.aranjuez@educa.madrid.org,http://www.educa.madrid.org/ies.alpajes.aranjuez,40.444325,-3.597235,2024-25,ESO|Bachillerato|CFGM|CFGS,ESO | Bachillerato | Ciclos Formativos,Múltiples familias,ALTA,centros_educativos
28039128,MARIA DE ZAYAS Y SOTOMAYOR,IES,Público,Majadahonda,Madrid,Comunidad de Madrid,CALLE del Romero 2,28221.0,916396611,ies.mariadezayas.majadahonda@educa.madrid.org,http://www.educa.madrid.org/ies.mariadezayas.majadahonda,40.88684,-3.862917,2024-25,ESO|Bachillerato|CFGM|CFGS,ESO | Bachillerato | Ciclos Formativos,Múltiples familias,ALTA,centros_educativos
28039529,JUAN XXIII,CPR FPE,Concertado,Alcorcón,Madrid,Comunidad de Madrid,CALLE Nueva 2,28921.0,916438326,cc.juanxxiii.alcorcon@educa.madrid.org,WWW.JUANXXIII.NET,40.757577,-3.832585,2024-25,CFGM|CFGS,Técnico en Atención a Personas en Situación de Dependencia | Técnico Superior en Educación Infantil | Técnico Superior en Integración Social | Técnico Superior en Animación Sociocultural y Turística,Servicios Socioculturales y a la Comunidad,ALTA,centros_educativos
28039670,CARDENAL CISNEROS,IES,Público,Alcalá de Henares,Madrid,Comunidad de Madrid,CALLE Cardenal Sandoval y Rojas 1,28802.0,918817263,ies.cardenalcisnero.alcala@educa.madrid.org,http://www.educa.madrid.org/ies.cardenalcisnero.alcala,40.891351,-3.373079,2024-25,ESO|Bachillerato|CFGM|CFGS,ESO | Bachillerato | Ciclos Formativos,Múltiples familias,ALTA,centros_educativos
28039682,ALKALA-NAHAR,IES,Público,Alcalá de Henares,Madrid,Comunidad de Madrid,CALLE Ávila 1,28804.0,918819311,ies.alkalanahar.alcala@educa.madrid.org,http://www.educa.madrid.org/ies.alkalanahar.alcala,40.896909,-3.344487,2024-25,ESO|Bachillerato|CFGM|CFGS,ESO | Bachillerato | Ciclos Formativos,Múltiples familias,ALTA,centros_educativos
28039694,IGNACIO ELLACURIA,IES,Público,Alcorcón,Madrid,Comunidad de Madrid,CALLE del Olímpico Francisco Fernández Ochoa s/n,28923.0,916434290,ies.ignacioellacuria.alcorcon@educa.madrid.org,http://www.educa.madrid.org/ies.ignacioellacuria.alcorcon,40.749511,-3.824536,2024-25,ESO|Bachillerato|CFGM|CFGS,ESO | Bachillerato | Ciclos Formativos,Múltiples familias,BAJA,centros_educativos
28039700,JOSEFINA ALDECOA,IES,Público,Alcorcón,Madrid,Comunidad de Madrid,CALLE de Sahagún s/n,28925.0,916125261,ies.josefinaaldecoa.alcorcon@educa.madrid.org,http://www.educa.madrid.org/ies.josefinaaldecoa.alcorcon,40.766582,-3.821773,2024-25,ESO|Bachillerato|CFGM|CFGS,ESO | Bachillerato | Ciclos Formativos,Múltiples familias,ALTA,centros_educativos
28039724,GRANDE COVIAN,IES,Público,Arganda del Rey,Madrid,Comunidad de Madrid,CMNO del Molino 8,28500.0,918700363,ies.grandecovian.arganda@educa.madrid.org,http://www.educa.madrid.org/ies.grandecovian.arganda,40.706355,-3.436123,2024-25,ESO|Bachillerato|CFGM|CFGS,ESO | Bachillerato | Ciclos Formativos,Múltiples familias,ALTA,centros_educativos
28039751,LA CAÑADA,IES,Público,Coslada,Madrid,Comunidad de Madrid,AVDA de la Cañada 44,28823.0,916741413,ies.lacanada.coslada@educa.madrid.org,http://www.educa.madrid.org/ies.lacanada.coslada,40.841293,-3.541819,2024-25,ESO|Bachillerato|CFGM|CFGS,ESO | Bachillerato | Ciclos Formativos,Múltiples familias,BAJA,centros_educativos
28039797,JULIO CARO BAROJA,IES,Público,Fuenlabrada,Madrid,Comunidad de Madrid,CALLE de la Habana 2,28945.0,916060313,ies.carobaroja.fuenlabrada@educa.madrid.org,http://www.educa.madrid.org/ies.carobaroja.fuenlabrada,40.697248,-3.791046,2024-25,ESO|Bachillerato|CFGM|CFGS,ESO | Bachillerato | Ciclos Formativos,Múltiples familias,ALTA,centros_educativos
28039803,SALVADOR ALLENDE,IES,Público,Fuenlabrada,Madrid,Comunidad de Madrid,CALLE de Andalucía 12,28941.0,916977213,ies.salvadorallende.fuenlabrada@educa.madrid.org,http://www.educa.madrid.org/ies.salvadorallende.fuenlabrada,40.699112,-3.802159,2024-25,ESO|Bachillerato|CFGM|CFGS,ESO | Bachillerato | Ciclos Formativos,Múltiples familias,ALTA,centros_educativos
28039827,LAGUNA DE JOATZEL,IES,Público,Getafe,Madrid,Comunidad de Madrid,AVDA Vascongadas s/n,28903.0,916832026,ies.lagunadejoatzel.getafe@educa.madrid.org,http://www.educa.madrid.org/ies.lagunadejoatzel.getafe,40.721241,-3.716297,2024-25,ESO|Bachillerato|CFGM|CFGS,ESO | Bachillerato | Ciclos Formativos,Múltiples familias,ALTA,centros_educativos
28039839,ISAAC ALBENIZ,IES,Público,Leganés,Madrid,Comunidad de Madrid,AVDA Gran Bretaña 18,28916.0,916800443,ies.albeniz.leganes@educa.madrid.org,http://www.educa.madrid.org/ies.albeniz.leganes,40.75033,-3.748095,2024-25,ESO|Bachillerato|CFGM|CFGS,ESO | Bachillerato | Ciclos Formativos,Múltiples familias,ALTA,centros_educativos
28039840,MARQUES DE SUANZES,IES,Público,Madrid,Madrid,Comunidad de Madrid,AVDA del Veinticinco de Septiembre 3,28027.0,917414653,ies.marquesdesuanzes.madrid@educa.madrid.org,http://www.educa.madrid.org/ies.marquesdesuanzes.madrid,40.854568,-3.629283,2024-25,ESO|Bachillerato|CFGM|CFGS,ESO | Bachillerato | Ciclos Formativos,Múltiples familias,ALTA,centros_educativos
28039852,PEREZ GALDOS,IES,Público,Madrid,Madrid,Comunidad de Madrid,CALLE de Fermín Caballero 92,28035.0,913863098,ies.perezgaldos.madrid@educa.madrid.org,http://www.educa.madrid.org/ies.perezgaldos.madrid,40.88837,-3.725942,2024-25,ESO|Bachillerato|CFGM|CFGS,ESO | Bachillerato | Ciclos Formativos,Múltiples familias,BAJA,centros_educativos
28039864,JULIO VERNE,IES,Público,Leganés,Madrid,Comunidad de Madrid,CALLE de la Ingeniería 4,28918.0,916807665,ies.julioverne.leganes@educa.madrid.org,http://www.educa.madrid.org/ies.julioverne.leganes,40.74724,-3.767735,2024-25,ESO|Bachillerato|CFGM|CFGS,ESO | Bachillerato | Ciclos Formativos,Múltiples familias,ALTA,centros_educativos
28039876,SALVADOR DALÍ,IES,Público,Madrid,Madrid,Comunidad de Madrid,CALLE de Verdaguer y García 2,28027.0,914049490,ies.salvadordali.madrid@educa.madrid.org,http://www.educa.madrid.org/ies.salvadordali.madrid,40.849645,-3.660603,2024-25,ESO|Bachillerato|CFGM|CFGS,ESO | Bachillerato | Ciclos Formativos,Múltiples familias,ALTA,centros_educativos
28039888,GABRIEL GARCIA MARQUEZ,IES,Público,Madrid,Madrid,Comunidad de Madrid,CALLE del Nevado del Ruiz 1,28033.0,913812820,ies.garciamarquez.madrid@educa.madrid.org,http://www.educa.madrid.org/ies.garciamarquez.madrid,40.879938,-3.639363,2024-25,ESO|Bachillerato|CFGM|CFGS,ESO | Bachillerato | Ciclos Formativos,Múltiples familias,ALTA,centros_educativos
28039891,VILLABLANCA,IES,Público,Madrid,Madrid,Comunidad de Madrid,CALLE de Villablanca 79,28032.0,917752214,ies.villablanca.madrid@educa.madrid.org,http://www.educa.madrid.org/ies.villablanca.madrid,40.815974,-3.603923,2024-25,ESO|Bachillerato|CFGM|CFGS,ESO | Bachillerato | Ciclos Formativos,Múltiples familias,ALTA,centros_educativos
28039943,CARLOS BOUSOÑO,IES,Público,Majadahonda,Madrid,Comunidad de Madrid,CALLE Pinos 10,28221.0,916347660,ies.carlosbousono.majadahonda@educa.madrid.org,http://www.educa.madrid.org/ies.carlosbousono.majadahonda,40.882448,-3.865993,2024-25,ESO|Bachillerato|CFGM|CFGS,ESO | Bachillerato | Ciclos Formativos,Múltiples familias,ALTA,centros_educativos
28039992,LOS ROSALES,IES,Público,Móstoles,Madrid,Comunidad de Madrid,CALLE Tulipán 4,28933.0,916146212,ies.losrosales.mostoles@educa.madrid.org,https://www.educa2.madrid.org/web/centro.ies.losrosales.mostoles,40.745583,-3.876309,2024-25,ESO|Bachillerato|CFGM|CFGS,ESO | Bachillerato | Ciclos Formativos,Múltiples familias,ALTA,centros_educativos
28040003,BENJAMIN RUA,IES,Público,Móstoles,Madrid,Comunidad de Madrid,CALLE Tulipán 1,28933.0,916645070,ies.benjaminrua.mostoles@educa.madrid.org,http://www.educa.madrid.org/ies.benjaminrua.mostoles,40.746093,-3.876789,2024-25,ESO|Bachillerato|CFGM|CFGS,ESO | Bachillerato | Ciclos Formativos,Múltiples familias,ALTA,centros_educativos
28040027,LUIS DE GONGORA,IES,Público,Torrejón de Ardoz,Madrid,Comunidad de Madrid,CALLE Río s/n,28850.0,916487638,ies.gongora.torrejondeardoz@educa.madrid.org,http://www.educa.madrid.org/ies.gongora.torrejondeardoz,40.860087,-3.475764,2024-25,ESO|Bachillerato|CFGM|CFGS,ESO | Bachillerato | Ciclos Formativos,Múltiples familias,ALTA,centros_educativos
28040611,AL-SATT,IES,Público,Algete,Madrid,Comunidad de Madrid,AVDA de Europa s/n,28110.0,916282412,ies.alsatt.algete@educa.madrid.org,http://www.educa.madrid.org/ies.alsatt.algete,41.007774,-3.512202,2024-25,ESO|Bachillerato|CFGM|CFGS,ESO | Bachillerato | Ciclos Formativos,Múltiples familias,ALTA,centros_educativos
28040647,ESCUELA TECNICA DE ENSEÑANZAS ESPECIALIZADAS,CPR FPE,Privado,Madrid,Madrid,Comunidad de Madrid,CALLE de Adela Balboa 16,28039.0,915347084,escuelatecnica@telefonica.net,www.etee.es,40.858359,-3.711507,2024-25,CFGM|CFGS,Técnico Superior en Administración y Finanzas | Técnico en Gestión Administrativa,Administración y Gestión,ALTA,centros_educativos
28040660,ALDEBARAN,IES,Público,Alcobendas,Madrid,Comunidad de Madrid,AVDA de Valdelaparra 90,28108.0,916618085,ies.aldebaran.alcobendas@educa.madrid.org,http://www.educa.madrid.org/ies.aldebaran.alcobendas,40.95336,-3.664714,2024-25,ESO|Bachillerato|CFGM|CFGS,ESO | Bachillerato | Ciclos Formativos,Múltiples familias,ALTA,centros_educativos
28040672,GUSTAVO ADOLFO BECQUER,IES,Público,Algete,Madrid,Comunidad de Madrid,AVDA de Europa s/n,28110.0,916291601,ies.becquer.algete@educa.madrid.org,http://www.educa.madrid.org/ies.becquer.algete,41.007774,-3.512202,2024-25,ESO|Bachillerato|CFGM|CFGS,ESO | Bachillerato | Ciclos Formativos,Múltiples familias,ALTA,centros_educativos
28040684,CARPE DIEM,IES,Público,Chinchón,Madrid,Comunidad de Madrid,CALLE Álvarez Laviada 3,28370.0,918940214,ies.carpediem.chinchon@educa.madrid.org,http://www.educa.madrid.org/ies.carpediem.chinchon,40.548766,-3.416983,2024-25,ESO|Bachillerato|CFGM|CFGS,ESO | Bachillerato | Ciclos Formativos,Múltiples familias,ALTA,centros_educativos
28040696,JOSÉ HIERRO,IES,Público,Getafe,Madrid,Comunidad de Madrid,AVDA de Juan Carlos I 9,28905.0,916821213,ies.josehierro.getafe@educa.madrid.org,http://www.educa.madrid.org/ies.josehierro.getafe,40.700496,-3.756237,2024-25,ESO|Bachillerato|CFGM|CFGS,ESO | Bachillerato | Ciclos Formativos,Múltiples familias,ALTA,centros_educativos
28040702,LEON FELIPE,IES,Público,Getafe,Madrid,Comunidad de Madrid,AVDA de las Fuerzas Armadas s/n,28901.0,916818080,ies.leonfelipe.getafe@educa.madrid.org,http://www.educa.madrid.org/ies.leonfelipe.getafe,40.709411,-3.737136,2024-25,ESO|Bachillerato|CFGM|CFGS,ESO | Bachillerato | Ciclos Formativos,Múltiples familias,ALTA,centros_educativos
28040714,DE GUADARRAMA,IES,Público,Guadarrama,Madrid,Comunidad de Madrid,CTRA del Escorial s/n,28440.0,918542212,ies.guadarrama@educa.madrid.org,http://www.educa.madrid.org/ies.guadarrama,41.075637,-4.094874,2024-25,ESO|Bachillerato|CFGM|CFGS,ESO | Bachillerato | Ciclos Formativos,Múltiples familias,ALTA,centros_educativos
28040726,JUAN DE MAIRENA,IES,Público,Leganés,Madrid,Comunidad de Madrid,CALLE Beatriz Galindo 3,28914.0,916889133,ies.juandemairena.leganes@educa.madrid.org,http://www.educa.madrid.org/ies.juandemairena.leganes,40.737475,-3.758077,2024-25,ESO|Bachillerato|CFGM|CFGS,ESO | Bachillerato | Ciclos Formativos,Múltiples familias,BAJA,centros_educativos
28040738,SAN NICASIO,IES,Público,Leganés,Madrid,Comunidad de Madrid,PASEO de la Ermita 4,28918.0,916807752,ies.sannicasio.leganes@educa.madrid.org,http://www.educa.madrid.org/ies.sannicasio.leganes,40.750572,-3.767584,2024-25,ESO|Bachillerato|CFGM|CFGS,ESO | Bachillerato | Ciclos Formativos,Múltiples familias,ALTA,centros_educativos
28040741,ITURRALDE,IES,Público,Madrid,Madrid,Comunidad de Madrid,CALLE de Nuestra Señora de la Luz 53,28047.0,914626822,ies.iturralde.madrid@educa.madrid.org,http://www.educa.madrid.org/ies.iturralde.madrid,40.795537,-3.755774,2024-25,ESO|Bachillerato|CFGM|CFGS,ESO | Bachillerato | Ciclos Formativos,Múltiples familias,ALTA,centros_educativos
28040751,VILLA DE VALLECAS,IES,Público,Madrid,Madrid,Comunidad de Madrid,CALLE de Villarino de los Aires 14,28031.0,917774715,ies.villadevallecas.madrid@educa.madrid.org,http://www.educa.madrid.org/ies.villadevallecas.madrid,40.784774,-3.628517,2024-25,ESO|Bachillerato|CFGM|CFGS,ESO | Bachillerato | Ciclos Formativos,Múltiples familias,ALTA,centros_educativos
28040763,ANA OZORES,IES,Público,Móstoles,Madrid,Comunidad de Madrid,AVDA de la O.N.U. 87,28936.0,916460176,ies.anaozores.mostoles@educa.madrid.org,http://www.educa.madrid.org/ies.anaozores.mostoles,40.720531,-3.85996,2024-25,ESO|Bachillerato|CFGM|CFGS,ESO | Bachillerato | Ciclos Formativos,Múltiples familias,BAJA,centros_educativos
28040775,SAN JUAN DE LA CRUZ,IES,Público,Pozuelo de Alarcón,Madrid,Comunidad de Madrid,CALLE San Juan de la Cruz s/n,28223.0,913525380,ies.sanjuandelacruz.pozuelodealarcon@educa.madrid.org,http://www.educa.madrid.org/ies.sanjuandelacruz.pozuelodealarcon,40.840377,-3.821961,2024-25,ESO|Bachillerato|CFGM|CFGS,ESO | Bachillerato | Ciclos Formativos,Múltiples familias,ALTA,centros_educativos
28040787,EL BURGO-IGNACIO ECHEVERRÍA,IES,Público,"Rozas de Madrid, Las",Madrid,Comunidad de Madrid,AVDA de España 141,28231.0,916393511,ies.burgoiecheverria.lasrozas@educa.madrid.org,http://www.educa.madrid.org/ies.burgoiecheverria.lasrozas,40.898352,-3.888377,2024-25,ESO|Bachillerato|CFGM|CFGS,ESO | Bachillerato | Ciclos Formativos,Múltiples familias,ALTA,centros_educativos
28040799,JULIO PALACIOS,IES,Público,San Sebastián de los Reyes,Madrid,Comunidad de Madrid,AVDA del Moscatelar 19,28703.0,916524999,ies.juliopalacios.sansebastian@educa.madrid.org,http://www.educa.madrid.org/ies.juliopalacios.sansebastian,40.95377,-3.621966,2024-25,ESO|Bachillerato|CFGM|CFGS,ESO | Bachillerato | Ciclos Formativos,Múltiples familias,ALTA,centros_educativos
28041354,AGORA,IES,Público,Alcobendas,Madrid,Comunidad de Madrid,CALLE Manuel de Falla 54-56,28100.0,916515700,ies.agora.alcobendas@educa.madrid.org,http://www.educa.madrid.org/ies.agora.alcobendas,40.962535,-3.646362,2024-25,ESO|Bachillerato|CFGM|CFGS,ESO | Bachillerato | Ciclos Formativos,Múltiples familias,ALTA,centros_educativos
28041366,EL PINAR,IES,Público,Alcorcón,Madrid,Comunidad de Madrid,CALLE del Parque Ferial s/n,28923.0,916439644,ies.elpinar.alcorcon@educa.madrid.org,http://www.educa.madrid.org/ies.elpinar.alcorcon,40.749638,-3.829501,2024-25,ESO|Bachillerato|CFGM|CFGS,ESO | Bachillerato | Ciclos Formativos,Múltiples familias,ALTA,centros_educativos
28041378,PROFESOR MAXIMO TRUEBA,IES,Público,Boadilla del Monte,Madrid,Comunidad de Madrid,CALLE de Santillana del Mar 22,28660.0,916321512,ies.maximotrueba.boadilla@educa.madrid.org,http://www.educa.madrid.org/ies.maximotrueba.boadilla,40.816165,-3.887114,2024-25,ESO|Bachillerato|CFGM|CFGS,ESO | Bachillerato | Ciclos Formativos,Múltiples familias,ALTA,centros_educativos
28041381,DE LA CABRERA,IES,Público,"Cabrera, La",Madrid,Comunidad de Madrid,CALLE de las Azucenas 12,28751.0,918688411,ies.lacabrera@educa.madrid.org,http://www.educa.madrid.org/ies.lacabrera,41.277714,-3.614321,2024-25,ESO|Bachillerato|CFGM|CFGS,ESO | Bachillerato | Ciclos Formativos,Múltiples familias,ALTA,centros_educativos
28041391,ANTONIO GAUDI,IES,Público,Coslada,Madrid,Comunidad de Madrid,CALLE del Júcar 1,28823.0,916733314,ies.antoniogaudi.coslada@educa.madrid.org,http://www.educa.madrid.org/ies.antoniogaudi.coslada,40.83353,-3.542028,2024-25,ESO|Bachillerato|CFGM|CFGS,ESO | Bachillerato | Ciclos Formativos,Múltiples familias,ALTA,centros_educativos
28041408,JOSÉ LUIS LÓPEZ ARANGUREN,IES,Público,Fuenlabrada,Madrid,Comunidad de Madrid,CALLE de Colombia 30,28945.0,916069595,ies.lopezaranguren.fuenlabrada@educa.madrid.org,http://www.educa.madrid.org/ies.lopezaranguren.fuenlabrada,40.703551,-3.786611,2024-25,ESO|Bachillerato|CFGM|CFGS,ESO | Bachillerato | Ciclos Formativos,Múltiples familias,BAJA,centros_educativos
28041411,ALTAIR,IES,Público,Getafe,Madrid,Comunidad de Madrid,CTRA de Getafe-Leganés s/n,28904.0,916831621,ies.altair.getafe@educa.madrid.org,http://www.educa.madrid.org/ies.altair.getafe,40.725079,-3.745977,2024-25,ESO|Bachillerato|CFGM|CFGS,ESO | Bachillerato | Ciclos Formativos,Múltiples familias,ALTA,centros_educativos
28041421,OCTAVIO PAZ,IES,Público,Leganés,Madrid,Comunidad de Madrid,CALLE Beatriz Galindo 1,28914.0,916886444,ies.octaviopaz.leganes@educa.madrid.org,http://www.educa.madrid.org/ies.octaviopaz.leganes,40.736608,-3.758055,2024-25,ESO|Bachillerato|CFGM|CFGS,ESO | Bachillerato | Ciclos Formativos,Múltiples familias,BAJA,centros_educativos
28041433,JUANA DE CASTILLA,IES,Público,Madrid,Madrid,Comunidad de Madrid,CALLE de Valdebernardo 3,28030.0,917726666,ies.juanadecastilla.madrid@educa.madrid.org,https://www.educa2.madrid.org/web/centro.ies.juanadecastilla.madrid,40.808494,-3.636969,2024-25,ESO|Bachillerato|CFGM|CFGS,ESO | Bachillerato | Ciclos Formativos,Múltiples familias,ALTA,centros_educativos
28041445,MIGUEL DELIBES,IES,Público,Mejorada del Campo,Madrid,Comunidad de Madrid,AVDA de Juan Gris 44,28840.0,916680143,ies.delibes.mejorada@educa.madrid.org,http://www.educa.madrid.org/ies.delibes.mejorada,40.800586,-3.487015,2024-25,ESO|Bachillerato|CFGM|CFGS,ESO | Bachillerato | Ciclos Formativos,Múltiples familias,ALTA,centros_educativos
28041457,EL CAÑAVERAL,IES,Público,Móstoles,Madrid,Comunidad de Madrid,AVDA de la O.N.U. 85,28936.0,916461068,ies.elcanaveral.mostoles@educa.madrid.org,http://www.educa.madrid.org/ies.elcanaveral.mostoles,40.72098,-3.859078,2024-25,ESO|Bachillerato|CFGM|CFGS,ESO | Bachillerato | Ciclos Formativos,Múltiples familias,BAJA,centros_educativos
28041470,PROFESOR ANGEL YSERN,IES,Público,Navalcarnero,Madrid,Comunidad de Madrid,PASEO don Miguel Ribagorda Gómez 3,28600.0,918101230,ies.angelysern.navalcarnero@educa.madrid.org,http://www.educa.madrid.org/ies.angelysern.navalcarnero,40.70289,-4.016848,2024-25,ESO|Bachillerato|CFGM|CFGS,ESO | Bachillerato | Ciclos Formativos,Múltiples familias,ALTA,centros_educativos
28041482,LA LAGUNA,IES,Público,Parla,Madrid,Comunidad de Madrid,CMNO DEL SALMORAL s/n,28981.0,916051520,ies.lalaguna.parla@educa.madrid.org,http://www.educa.madrid.org/ies.lalaguna.parla,40.654808,-3.77706,2024-25,ESO|Bachillerato|CFGM|CFGS,ESO | Bachillerato | Ciclos Formativos,Múltiples familias,ALTA,centros_educativos
28041494,LAS LAGUNAS,IES,Público,Rivas-Vaciamadrid,Madrid,Comunidad de Madrid,AVDA de Gabriel García Márquez s/n,28523.0,916660003,ies.laslagunas.rivas@educa.madrid.org,http://www.educa.madrid.org/ies.laslagunas.rivas,40.772307,-3.551223,2024-25,ESO|Bachillerato|CFGM|CFGS,ESO | Bachillerato | Ciclos Formativos,Múltiples familias,ALTA,centros_educativos
28041500,PALAS ATENEA,IES,Público,Torrejón de Ardoz,Madrid,Comunidad de Madrid,CALLE Arrope s/n,28850.0,916772915,ies.palasatenea.torrejondeardoz@educa.madrid.org,http://www.educa.madrid.org/ies.palasatenea.torrejondeardoz,40.873958,-3.460577,2024-25,ESO|Bachillerato|CFGM|CFGS,ESO | Bachillerato | Ciclos Formativos,Múltiples familias,ALTA,centros_educativos
28041512,CALATALIFA,IES,Público,Villaviciosa de Odón,Madrid,Comunidad de Madrid,CALLE San Antonio 2,28670.0,916169295,ies.calatalifa.villaviciosa@educa.madrid.org,http://www.educa.madrid.org/ies.calatalifa.villaviciosa,40.764548,-3.907707,2024-25,ESO|Bachillerato|CFGM|CFGS,ESO | Bachillerato | Ciclos Formativos,Múltiples familias,ALTA,centros_educativos
28041597,LAS CANTERAS,IES,Público,Collado Villalba,Madrid,Comunidad de Madrid,CALLE Peñalara 2,28400.0,918513438,ies.lascanteras.colladovillalba@educa.madrid.org,http://www.educa.madrid.org/ies.lascanteras.colladovillalba,41.049888,-4.00606,2024-25,ESO|Bachillerato|CFGM|CFGS,ESO | Bachillerato | Ciclos Formativos,Múltiples familias,ALTA,centros_educativos
28041615,SATAFI,IES,Público,Getafe,Madrid,Comunidad de Madrid,AVDA de las Ciudades 104,28903.0,916830660,ies.satafi.getafe@educa.madrid.org,http://www.educa.madrid.org/ies.satafi.getafe,40.722043,-3.716554,2024-25,ESO|Bachillerato|CFGM|CFGS,ESO | Bachillerato | Ciclos Formativos,Múltiples familias,ALTA,centros_educativos
28042000,IGNACIO ELLACURIA,IES,Público,Alcalá de Henares,Madrid,Comunidad de Madrid,CALLE Senda Perdida s/n,28805.0,918823430,ies.ignacioellacuria.alcala@educa.madrid.org,http://www.educa.madrid.org/ies.ignacioellacuria.alcala,40.905247,-3.356867,2024-25,ESO|Bachillerato|CFGM|CFGS,ESO | Bachillerato | Ciclos Formativos,Múltiples familias,ALTA,centros_educativos
28042012,MARIA GUERRERO,IES,Público,Collado Villalba,Madrid,Comunidad de Madrid,AVDA las Suertes s/n,28400.0,918508395,ies.mariaguerrero.colladovillalba@educa.madrid.org,http://www.educa.madrid.org/ies.mariaguerrero.colladovillalba,41.034606,-4.010539,2024-25,ESO|Bachillerato|CFGM|CFGS,ESO | Bachillerato | Ciclos Formativos,Múltiples familias,ALTA,centros_educativos
28042024,PABLO NERUDA,IES,Público,Leganés,Madrid,Comunidad de Madrid,CALLE Maestro 31,28914.0,916801909,ies.neruda.leganes@educa.madrid.org,http://www.educa.madrid.org/ies.neruda.leganes,40.738782,-3.750038,2024-25,ESO|Bachillerato|CFGM|CFGS,ESO | Bachillerato | Ciclos Formativos,Múltiples familias,ALTA,centros_educativos
28042036,GABRIEL GARCIA MARQUEZ,IES,Público,Leganés,Madrid,Comunidad de Madrid,CALLE Beatriz Galindo 6,28914.0,914811290,ies.garciamarquez.leganes@educa.madrid.org,http://www.educa.madrid.org/ies.garciamarquez.leganes,40.737533,-3.757414,2024-25,ESO|Bachillerato|CFGM|CFGS,ESO | Bachillerato | Ciclos Formativos,Múltiples familias,ALTA,centros_educativos
28042048,JOAQUIN ARAUJO,IES,Público,Fuenlabrada,Madrid,Comunidad de Madrid,CALLE de la Fuente 36,28944.0,916000315,ies.joaquinaraujo.fuenlabrada@educa.madrid.org,http://www.educa.madrid.org/ies.joaquinaraujo.fuenlabrada,40.687858,-3.792687,2024-25,ESO|Bachillerato|CFGM|CFGS,ESO | Bachillerato | Ciclos Formativos,Múltiples familias,ALTA,centros_educativos
28042051,DOLORES IBARRURI,IES,Público,Fuenlabrada,Madrid,Comunidad de Madrid,CALLE de los Arados 9,28944.0,916062181,ies.doloresibarruri.fuenlabrada@educa.madrid.org,http://www.educa.madrid.org/ies.doloresibarruri.fuenlabrada,40.68648,-3.801357,2024-25,ESO|Bachillerato|CFGM|CFGS,ESO | Bachillerato | Ciclos Formativos,Múltiples familias,ALTA,centros_educativos
28042061,ANTONIO LOPEZ GARCÍA,IES,Público,Getafe,Madrid,Comunidad de Madrid,CALLE de los Arquitectos 39,28903.0,916835621,ies.antoniolopezgarcia.getafe@educa.madrid.org,http://www.educa.madrid.org/ies.antoniolopezgarcia.getafe,40.733911,-3.729839,2024-25,ESO|Bachillerato|CFGM|CFGS,ESO | Bachillerato | Ciclos Formativos,Múltiples familias,ALTA,centros_educativos
28042073,MARGARITA SALAS,IES,Público,Majadahonda,Madrid,Comunidad de Madrid,CALLE María Teresa León 1,28220.0,916340599,ies.margaritasalas.majadahonda@educa.madrid.org,http://www.educa.madrid.org/ies.margaritasalas.majadahonda,40.87515,-3.87271,2024-25,ESO|Bachillerato|CFGM|CFGS,ESO | Bachillerato | Ciclos Formativos,Múltiples familias,ALTA,centros_educativos
28042085,ANTONIO GALA,IES,Público,Móstoles,Madrid,Comunidad de Madrid,CALLE Hermanos Grimm 3,28935.0,916145263,ies.antoniogala.mostoles@educa.madrid.org,http://www.educa.madrid.org/ies.antoniogala.mostoles,40.731998,-3.888115,2024-25,ESO|Bachillerato|CFGM|CFGS,ESO | Bachillerato | Ciclos Formativos,Múltiples familias,ALTA,centros_educativos
28042097,MIGUEL HERNÁNDEZ,IES,Público,Móstoles,Madrid,Comunidad de Madrid,AVDA de Carlos V 1,28936.0,916468193,ies.miguelhernandez.mostoles@educa.madrid.org,http://www.educa.madrid.org/ies.miguelhernandez.mostoles,40.73335,-3.854855,2024-25,ESO|Bachillerato|CFGM|CFGS,ESO | Bachillerato | Ciclos Formativos,Múltiples familias,ALTA,centros_educativos
28042103,PINTOR ANTONIO LOPEZ,IES,Público,Tres Cantos,Madrid,Comunidad de Madrid,CALLE del Orégano 1,28760.0,918039102,ies.antoniolopez.trescantos@educa.madrid.org,http://www.educa.madrid.org/ies.antoniolopez.trescantos,41.012728,-3.706886,2024-25,ESO|Bachillerato|CFGM|CFGS,ESO | Bachillerato | Ciclos Formativos,Múltiples familias,ALTA,centros_educativos
28042115,ITACA,IES,Público,Alcorcón,Madrid,Comunidad de Madrid,AVDA de los Castillos s/n,28925.0,916101411,ies.itaca.alcorcon@educa.madrid.org,http://www.educa.madrid.org/ies.itaca.alcorcon,40.765988,-3.813828,2024-25,ESO|Bachillerato|CFGM|CFGS,ESO | Bachillerato | Ciclos Formativos,Múltiples familias,ALTA,centros_educativos
28042590,ALBENIZ,IES,Público,Alcalá de Henares,Madrid,Comunidad de Madrid,CALLE Gardenia s/n,28803.0,918816812,,,40.884001,-3.373821,2024-25,ESO|Bachillerato|CFGM|CFGS,ESO | Bachillerato | Ciclos Formativos,Múltiples familias,BAJA,centros_educativos
28042607,LUIS BRAILLE,IES,Público,Coslada,Madrid,Comunidad de Madrid,CALLE de Luis Braille 42,28822.0,916698191,ies.luisbraille.coslada@educa.madrid.org,http://www.educa.madrid.org/ies.luisbraille.coslada,40.837074,-3.561414,2024-25,ESO|Bachillerato|CFGM|CFGS,ESO | Bachillerato | Ciclos Formativos,Múltiples familias,ALTA,centros_educativos
28042619,AFRICA,IES,Público,Fuenlabrada,Madrid,Comunidad de Madrid,CALLE Portugal 41,28943.0,916073584,ies.africa.fuenlabrada@educa.madrid.org,http://www.educa.madrid.org/ies.africa.fuenlabrada,40.695604,-3.814474,2024-25,ESO|Bachillerato|CFGM|CFGS,ESO | Bachillerato | Ciclos Formativos,Múltiples familias,BAJA,centros_educativos
28042620,INFANTA ELENA,IES,Público,Galapagar,Madrid,Comunidad de Madrid,CTRA de Guadarrama 85,28260.0,918587730,ies.infantaelena.galapagar@educa.madrid.org,http://www.educa.madrid.org/ies.infantaelena.galapagar,40.993157,-4.017681,2024-25,ESO|Bachillerato|CFGM|CFGS,ESO | Bachillerato | Ciclos Formativos,Múltiples familias,ALTA,centros_educativos
28042632,ICARO,IES,Público,Getafe,Madrid,Comunidad de Madrid,CTRA de Getafe-Leganés s/n,28905.0,916834866,ies.icaro.getafe@educa.madrid.org,,40.725742,-3.746718,2024-25,ESO|Bachillerato|CFGM|CFGS,ESO | Bachillerato | Ciclos Formativos,Múltiples familias,ALTA,centros_educativos
28042644,SANTA EUGENIA,IES,Público,Madrid,Madrid,Comunidad de Madrid,CALLE Cerro Almodóvar 5,28031.0,913311623,ies.santaeugenia.madrid@educa.madrid.org,http://www.educa.madrid.org/ies.santaeugenia.madrid,40.795462,-3.608206,2024-25,ESO|Bachillerato|CFGM|CFGS,ESO | Bachillerato | Ciclos Formativos,Múltiples familias,ALTA,centros_educativos
28042656,CLARA DEL REY,IES,Público,Madrid,Madrid,Comunidad de Madrid,CALLE del Padre Claret 8,28002.0,915195257,ies.claradelrey.madrid@educa.madrid.org,http://www.educa.madrid.org/ies.claradelrey.madrid,40.856451,-3.668466,2024-25,ESO|Bachillerato|CFGM|CFGS,ESO | Bachillerato | Ciclos Formativos,Múltiples familias,ALTA,centros_educativos
28042668,EUROPA,IES,Público,Móstoles,Madrid,Comunidad de Madrid,AVDA de Alcorcón 9,28936.0,916468267,ies.europa.mostoles@educa.madrid.org,http://www.educa.madrid.org/ies.europa.mostoles,40.737271,-3.855604,2024-25,ESO|Bachillerato|CFGM|CFGS,ESO | Bachillerato | Ciclos Formativos,Múltiples familias,ALTA,centros_educativos
28042671,ANTONIO DE NEBRIJA,IES,Público,Móstoles,Madrid,Comunidad de Madrid,AVDA de la O.N.U. 83,28936.0,916466443,ies.antoniodenebrija.mostoles@educa.madrid.org,www.iesantoniodenebrija.es,40.721726,-3.858211,2024-25,ESO|Bachillerato|CFGM|CFGS,ESO | Bachillerato | Ciclos Formativos,Múltiples familias,ALTA,centros_educativos
28042681,VALLE INCLAN,IES,Público,Torrejón de Ardoz,Madrid,Comunidad de Madrid,CALLE Juncal 14,28850.0,916773057,ies.valleinclan.torrejondeardoz@educa.madrid.org,http://www.educa.madrid.org/ies.valleinclan.torrejondeardoz,40.872881,-3.461305,2024-25,ESO|Bachillerato|CFGM|CFGS,ESO | Bachillerato | Ciclos Formativos,Múltiples familias,ALTA,centros_educativos
28042981,ROSA CHACEL,IES,Público,Colmenar Viejo,Madrid,Comunidad de Madrid,CALLE de las Huertas 68,28770.0,918464801,ies.rosachacel.colmenarviejo@educa.madrid.org,http://www.educa.madrid.org/ies.rosachacel.colmenarviejo,41.064628,-3.770284,2024-25,ESO|Bachillerato|CFGM|CFGS,ESO | Bachillerato | Ciclos Formativos,Múltiples familias,ALTA,centros_educativos
28042991,VICTORIA KENT,IES,Público,Fuenlabrada,Madrid,Comunidad de Madrid,CMNO Polvoranca s/n,28942.0,916084625,ies.victoriakent.fuenlabrada@educa.madrid.org,http://www.educa.madrid.org/ies.victoriakent.fuenlabrada,40.712225,-3.815327,2024-25,ESO|Bachillerato|CFGM|CFGS,ESO | Bachillerato | Ciclos Formativos,Múltiples familias,ALTA,centros_educativos
28043004,FEDERICA MONTSENY,IES,Público,Fuenlabrada,Madrid,Comunidad de Madrid,CALLE Torrente 52,28942.0,916085302,ies.federicamontsen.fuenlabrada@educa.madrid.org,http://www.educa.madrid.org/ies.federicamontsen.fuenlabrada,40.699774,-3.818431,2024-25,ESO|Bachillerato|CFGM|CFGS,ESO | Bachillerato | Ciclos Formativos,Múltiples familias,BAJA,centros_educativos
28043016,PABLO PICASSO,IES,Público,Pinto,Madrid,Comunidad de Madrid,CALLE de Pablo Picasso s/n,28320.0,916921536,ies.picasso.pinto@educa.madrid.org,http://www.educa.madrid.org/ies.picasso.pinto,40.647865,-3.698184,2024-25,ESO|Bachillerato|CFGM|CFGS,ESO | Bachillerato | Ciclos Formativos,Múltiples familias,ALTA,centros_educativos
28043028,JUAN DE MAIRENA,IES,Público,San Sebastián de los Reyes,Madrid,Comunidad de Madrid,PSAJE la Viña 3,28701.0,916518199,ies.juandemairena.sansebastian@educa.madrid.org,http://www.educa.madrid.org/ies.juandemairena.sansebastian,40.95912,-3.638819,2024-25,ESO|Bachillerato|CFGM|CFGS,ESO | Bachillerato | Ciclos Formativos,Múltiples familias,ALTA,centros_educativos
28044306,CARMEN CONDE,IES,Público,"Rozas de Madrid, Las",Madrid,Comunidad de Madrid,AVDA de Atenas 45bis,28232.0,916319487,ies.carmenconde.lasrozas@educa.madrid.org,http://www.educa.madrid.org/ies.carmenconde.lasrozas,40.940534,-3.916289,2024-25,ESO|Bachillerato|CFGM|CFGS,ESO | Bachillerato | Ciclos Formativos,Múltiples familias,ALTA,centros_educativos
28044318,LUIS GARCIA BERLANGA,IES,Público,Coslada,Madrid,Comunidad de Madrid,CALLE de la Virgen del Mar s/n,28821.0,916695610,ies.garciaberlanga.coslada@educa.madrid.org,http://www.educa.madrid.org/ies.garciaberlanga.coslada,40.839931,-3.566088,2024-25,ESO|Bachillerato|CFGM|CFGS,ESO | Bachillerato | Ciclos Formativos,Múltiples familias,ALTA,centros_educativos
28044719,RAYUELA,IES,Público,Móstoles,Madrid,Comunidad de Madrid,CALLE Magallanes 14,28933.0,916641407,ies.rayuela.mostoles@educa.madrid.org,http://www.educa.madrid.org/ies.rayuela.mostoles,40.740951,-3.880002,2024-25,ESO|Bachillerato|CFGM|CFGS,ESO | Bachillerato | Ciclos Formativos,Múltiples familias,ALTA,centros_educativos
28044720,EL OLIVO,IES,Público,Parla,Madrid,Comunidad de Madrid,CALLE Felipe II 11,28982.0,916055311,ies.elolivo.parla@educa.madrid.org,https://site.educa.madrid.org/ies.elolivo.parla/,40.646125,-3.766208,2024-25,ESO|Bachillerato|CFGM|CFGS,ESO | Bachillerato | Ciclos Formativos,Múltiples familias,ALTA,centros_educativos
28044732,ATENEA,IES,Público,Fuenlabrada,Madrid,Comunidad de Madrid,CALLE de Colombia 28,28945.0,916976614,ies.atenea.fuenlabrada@educa.madrid.org,http://www.educa.madrid.org/ies.atenea.fuenlabrada,40.703026,-3.786841,2024-25,ESO|Bachillerato|CFGM|CFGS,ESO | Bachillerato | Ciclos Formativos,Múltiples familias,BAJA,centros_educativos
28044744,DOCTOR MARAÑON,IES,Público,Alcalá de Henares,Madrid,Comunidad de Madrid,CALLE Alejo Carpentier 1,28806.0,918788137,ies.maranon.alcala@educa.madrid.org,http://www.educa.madrid.org/ies.maranon.alcala,40.903787,-3.378978,2024-25,ESO|Bachillerato|CFGM|CFGS,ESO | Bachillerato | Ciclos Formativos,Múltiples familias,ALTA,centros_educativos
28044756,DUQUE DE RIVAS,IES,Público,Rivas-Vaciamadrid,Madrid,Comunidad de Madrid,PASEO de la Chopera 64,28523.0,916665259,ies.duquederivas.rivas@educa.madrid.org,http://www.educa.madrid.org/ies.duquederivas.rivas,40.777456,-3.537033,2024-25,ESO|Bachillerato|CFGM|CFGS,ESO | Bachillerato | Ciclos Formativos,Múltiples familias,ALTA,centros_educativos
28044768,ANSELMO LORENZO,IES,Público,San Martín de la Vega,Madrid,Comunidad de Madrid,AVDA abogados de atocha 4,28330.0,918087800,ies.anselmolorenzo.sanmartindelavega@educa.madrid.org,http://www.educa.madrid.org/ies.anselmolorenzo.sanmartindelavega,40.624529,-3.570083,2024-25,ESO|Bachillerato|CFGM|CFGS,ESO | Bachillerato | Ciclos Formativos,Múltiples familias,ALTA,centros_educativos
28044902,FRANCISCO DE QUEVEDO,IES,Público,Madrid,Madrid,Comunidad de Madrid,CALLE de San Román del Valle s/n,28037.0,913065604,ies.quevedo.madrid@educa.madrid.org,http://www.educa.madrid.org/ies.quevedo.madrid,40.83164,-3.626327,2024-25,ESO|Bachillerato|CFGM|CFGS,ESO | Bachillerato | Ciclos Formativos,Múltiples familias,ALTA,centros_educativos
